"ROUTE_ID","ROUTE_NAME","STOP_ID","STOP_NAME_SHORT","STOP_NAME","SCHEDULED","DELAY_MIN","LONGITUDE","LATITUDE"
"305","2","2251","DEP4","Zürich, Depot 4 Elisabethenstr","2012-10-01 06:00:00 AM","0.18","8.521632222222221","47.37333861111111"
"305","2","1906","KALK","Zürich, Kalkbreite","2012-10-01 06:01:00 AM","1.27","8.520745555555555","47.37466027777778"
"305","2","2248","LOCH","Zürich, Lochergut","2012-10-01 06:01:42 AM","1.37","8.517121111111111","47.3755125"
"305","2","2250","ZYPR","Zürich, Zypressenstrasse","2012-10-01 06:02:48 AM","1.2","8.513573055555556","47.37685888888889"
"305","2","1535","ALBP","Zürich, Albisriederplatz","2012-10-01 06:04:06 AM","0.97","8.510094444444444","47.37838444444444"
"305","2","2245","LETG","Zürich, Letzigrund","2012-10-01 06:05:48 AM","0.72","8.503504722222223","47.38129694444444"
"305","2","2253","FREI","Zürich, Freihofstrasse","2012-10-01 06:06:54 AM","0.7","8.499385555555556","47.38326861111111"
"305","2","2244","KAPP","Zürich, Kappeli","2012-10-01 06:08:00 AM","0.87","8.494669444444444","47.38520972222222"
"305","2","2770","GRIM","Zürich, Grimselstrasse","2012-10-01 06:09:24 AM","0.83","8.489712777777777","47.387045"
"305","2","2535","LIND","Zürich, Lindenplatz","2012-10-01 06:10:36 AM","0.63","8.485795277777777","47.38788111111111"
"305","2","2818","BACH","Zürich, Bachmattstrasse","2012-10-01 06:11:30 AM","0.68","8.482602222222223","47.389178333333334"
"305","2","1310","FARB","Zürich, Farbhof","2012-10-01 06:12:36 AM","0.92","8.47908111111111","47.39064944444444"
"305","2","1310","FARB","Zürich, Farbhof","2012-10-01 06:14:30 AM","0.25","8.47908111111111","47.39064944444444"
"305","2","2818","BACH","Zürich, Bachmattstrasse","2012-10-01 06:15:18 AM","0.18","8.482995833333334","47.38898583333334"
"305","2","2535","LIND","Zürich, Lindenplatz","2012-10-01 06:16:00 AM","0.45","8.486349722222222","47.38777722222222"
"305","2","2770","GRIM","Zürich, Grimselstrasse","2012-10-01 06:17:12 AM","0.25","8.490318888888888","47.386895555555554"
"305","2","2244","KAPP","Zürich, Kappeli","2012-10-01 06:18:42 AM","0.2","8.495116944444444","47.385061944444445"
"305","2","2253","FREI","Zürich, Freihofstrasse","2012-10-01 06:19:48 AM","0.38","8.499870833333333","47.38303027777778"
"305","2","2245","LETG","Zürich, Letzigrund","2012-10-01 06:20:54 AM","0.38","8.50382","47.38115888888889"
"305","2","1535","ALBP","Zürich, Albisriederplatz","2012-10-01 06:22:12 AM","0.5","8.51051388888889","47.37817361111111"
"305","2","2250","ZYPR","Zürich, Zypressenstrasse","2012-10-01 06:23:24 AM","1.05","8.513966111111111","47.3766575"
"305","2","2248","LOCH","Zürich, Lochergut","2012-10-01 06:24:30 AM","0.92","8.517727777777777","47.375344444444444"
"305","2","1906","KALK","Zürich, Kalkbreite","2012-10-01 06:26:00 AM","0.68","8.5212725","47.37452944444444"
"305","2","1306","BEZI","Zürich, Bezirksgebäude","2012-10-01 06:27:06 AM","0.83","8.525868611111111","47.37394638888889"
"305","2","1502","STAU","Zürich, Stauffacher","2012-10-01 06:28:36 AM","1.35","8.530297222222222","47.37358972222222"
"305","2","2657","SIHS","Zürich, Sihlstrasse","2012-10-01 06:31:12 AM","1.43","8.534823333333334","47.372170833333335"
"305","2","1528","PARA","Zürich, Paradeplatz","2012-10-01 06:32:48 AM","1.38","8.53917888888889","47.369574722222225"
"305","2","2228","BOES","Zürich, Börsenstrasse","2012-10-01 06:34:12 AM","1.02","8.539835833333333","47.36803916666667"
"305","2","2590","BURK","Zürich, Bürkliplatz","2012-10-01 06:35:36 AM","1.27","8.541765833333333","47.36660861111111"
"305","2","1565","BELL","Zürich, Bellevue","2012-10-01 06:37:18 AM","1.28","8.545332777777778","47.36687138888889"
"305","2","2104","OPER","Zürich, Opernhaus","2012-10-01 06:39:00 AM","1.55","8.547723055555556","47.36531027777778"
"305","2","2612","KRES","Zürich, Kreuzstrasse","2012-10-01 06:40:00 AM","1.77","8.5496","47.36325027777778"
"305","2","2689","FELD","Zürich, Feldeggstrasse","2012-10-01 06:41:18 AM","1.73","8.552069722222223","47.36042888888889"
"305","2","2615","HOES","Zürich, Höschgasse","2012-10-01 06:42:24 AM","1.82","8.554345277777777","47.35782527777778"
"305","2","2680","FROE","Zürich, Fröhlichstrasse","2012-10-01 06:43:30 AM","2.03","8.557001111111111","47.355065"
"305","2","2651","WILD","Zürich, Wildbachstrasse","2012-10-01 06:44:30 AM","1.87","8.5588925","47.35310388888889"
"305","2","2788","BTIE","Zürich, Bahnhof Tiefenbrunnen","2012-10-01 06:45:36 AM","2.28","8.561023055555555","47.35057333333334"
"305","2","2788","BTIE","Zürich, Bahnhof Tiefenbrunnen","2012-10-01 06:51:30 AM","0.33","8.561023055555555","47.35057333333334"
"305","2","2651","WILD","Zürich, Wildbachstrasse","2012-10-01 06:52:30 AM","0.23","8.558699444444445","47.35337555555556"
"305","2","2680","FROE","Zürich, Fröhlichstrasse","2012-10-01 06:53:30 AM","-0.05","8.556808888888888","47.35537277777778"
"305","2","2615","HOES","Zürich, Höschgasse","2012-10-01 06:54:36 AM","0.37","8.554178055555555","47.35806083333333"
"305","2","2689","FELD","Zürich, Feldeggstrasse","2012-10-01 06:55:42 AM","0.22","8.552318333333334","47.36029166666667"
"305","2","2612","KRES","Zürich, Kreuzstrasse","2012-10-01 06:57:00 AM","-0.1","8.549910555555556","47.36291444444444"
"305","2","2104","OPER","Zürich, Opernhaus","2012-10-01 06:58:12 AM","0.08","8.547371666666667","47.36560138888889"
"305","2","1565","BELL","Zürich, Bellevue","2012-10-01 07:00:12 AM","0.07","8.544831666666667","47.36696611111111"
"305","2","2590","BURK","Zürich, Bürkliplatz","2012-10-01 07:02:24 AM","0.2","8.540955","47.366463333333336"
"305","2","2228","BOES","Zürich, Börsenstrasse","2012-10-01 07:04:00 AM","0.83","8.539842777777778","47.36837194444445"
"305","2","1528","PARA","Zürich, Paradeplatz","2012-10-01 07:05:06 AM","0.78","8.538715","47.369552222222225"
"305","2","2657","SIHS","Zürich, Sihlstrasse","2012-10-01 07:06:48 AM","0.77","8.534576944444444","47.372425"
"305","2","1502","STAU","Zürich, Stauffacher","2012-10-01 07:08:48 AM","0.5","8.529235","47.37343805555555"
"305","2","1306","BEZI","Zürich, Bezirksgebäude","2012-10-01 07:11:12 AM","0.17","8.525395555555555","47.37412166666667"
"305","2","1906","KALK","Zürich, Kalkbreite","2012-10-01 07:12:36 AM","0.03","8.520745555555555","47.37466027777778"
"305","2","2248","LOCH","Zürich, Lochergut","2012-10-01 07:13:54 AM","0.45","8.517121111111111","47.3755125"
"305","2","2250","ZYPR","Zürich, Zypressenstrasse","2012-10-01 07:15:06 AM","0.17","8.513573055555556","47.37685888888889"
"305","2","1535","ALBP","Zürich, Albisriederplatz","2012-10-01 07:16:30 AM","-0.12","8.510094444444444","47.37838444444444"
"305","2","2245","LETG","Zürich, Letzigrund","2012-10-01 07:18:24 AM","-0.15","8.503504722222223","47.38129694444444"
"305","2","2253","FREI","Zürich, Freihofstrasse","2012-10-01 07:19:36 AM","-0.17","8.499385555555556","47.38326861111111"
"305","2","2244","KAPP","Zürich, Kappeli","2012-10-01 07:20:48 AM","-0.13","8.494669444444444","47.38520972222222"
"305","2","2770","GRIM","Zürich, Grimselstrasse","2012-10-01 07:22:24 AM","-0.22","8.489712777777777","47.387045"
"305","2","2535","LIND","Zürich, Lindenplatz","2012-10-01 07:23:36 AM","-0.15","8.485795277777777","47.38788111111111"
"305","2","2818","BACH","Zürich, Bachmattstrasse","2012-10-01 07:24:48 AM","-0.32","8.482602222222223","47.389178333333334"
"305","2","1310","FARB","Zürich, Farbhof","2012-10-01 07:26:00 AM","0.03","8.47908111111111","47.39064944444444"
"305","2","1310","FARB","Zürich, Farbhof","2012-10-01 07:28:30 AM","0.33","8.47908111111111","47.39064944444444"
"305","2","2818","BACH","Zürich, Bachmattstrasse","2012-10-01 07:29:24 AM","0.07","8.482995833333334","47.38898583333334"
"305","2","2535","LIND","Zürich, Lindenplatz","2012-10-01 07:30:12 AM","0.25","8.486349722222222","47.38777722222222"
"305","2","2770","GRIM","Zürich, Grimselstrasse","2012-10-01 07:31:24 AM","0.1","8.490318888888888","47.386895555555554"
"305","2","2244","KAPP","Zürich, Kappeli","2012-10-01 07:33:00 AM","-0.1","8.495116944444444","47.385061944444445"
"305","2","2253","FREI","Zürich, Freihofstrasse","2012-10-01 07:34:12 AM","0.02","8.499870833333333","47.38303027777778"
"305","2","2245","LETG","Zürich, Letzigrund","2012-10-01 07:35:24 AM","0.1","8.50382","47.38115888888889"
"305","2","1535","ALBP","Zürich, Albisriederplatz","2012-10-01 07:36:48 AM","0.25","8.51051388888889","47.37817361111111"
"305","2","2250","ZYPR","Zürich, Zypressenstrasse","2012-10-01 07:38:00 AM","0.28","8.513966111111111","47.3766575"
"305","2","2248","LOCH","Zürich, Lochergut","2012-10-01 07:39:12 AM","0.17","8.517727777777777","47.375344444444444"
"305","2","1906","KALK","Zürich, Kalkbreite","2012-10-01 07:40:42 AM","0.35","8.5212725","47.37452944444444"
"305","2","1306","BEZI","Zürich, Bezirksgebäude","2012-10-01 07:41:54 AM","0.55","8.525868611111111","47.37394638888889"
"305","2","1502","STAU","Zürich, Stauffacher","2012-10-01 07:43:36 AM","0.55","8.530297222222222","47.37358972222222"
"305","2","2657","SIHS","Zürich, Sihlstrasse","2012-10-01 07:46:06 AM","0.85","8.534823333333334","47.372170833333335"
"305","2","1528","PARA","Zürich, Paradeplatz","2012-10-01 07:47:48 AM","0.93","8.53917888888889","47.369574722222225"
"305","2","2228","BOES","Zürich, Börsenstrasse","2012-10-01 07:49:30 AM","0.3","8.539835833333333","47.36803916666667"
"305","2","2590","BURK","Zürich, Bürkliplatz","2012-10-01 07:51:00 AM","0.17","8.541765833333333","47.36660861111111"
"305","2","1565","BELL","Zürich, Bellevue","2012-10-01 07:53:00 AM","0.0","8.545332777777778","47.36687138888889"
"305","2","2104","OPER","Zürich, Opernhaus","2012-10-01 07:54:54 AM","-0.18","8.547723055555556","47.36531027777778"
"305","2","2612","KRES","Zürich, Kreuzstrasse","2012-10-01 07:56:06 AM","-0.07","8.5496","47.36325027777778"
"305","2","2689","FELD","Zürich, Feldeggstrasse","2012-10-01 07:57:24 AM","-0.3","8.552069722222223","47.36042888888889"
"305","2","2615","HOES","Zürich, Höschgasse","2012-10-01 07:58:36 AM","-0.28","8.554345277777777","47.35782527777778"
"305","2","2680","FROE","Zürich, Fröhlichstrasse","2012-10-01 07:59:54 AM","-0.37","8.557001111111111","47.355065"
"305","2","2651","WILD","Zürich, Wildbachstrasse","2012-10-01 08:00:54 AM","-0.35","8.5588925","47.35310388888889"
"305","2","2788","BTIE","Zürich, Bahnhof Tiefenbrunnen","2012-10-01 08:02:00 AM","0.12","8.561023055555555","47.35057333333334"
"305","2","2651","WILD","Zürich, Wildbachstrasse","2012-10-01 08:07:30 AM","0.27","8.558699444444445","47.35337555555556"
"305","2","2680","FROE","Zürich, Fröhlichstrasse","2012-10-01 08:08:30 AM","0.32","8.556808888888888","47.35537277777778"
"305","2","2615","HOES","Zürich, Höschgasse","2012-10-01 08:09:36 AM","0.52","8.554178055555555","47.35806083333333"
"305","2","2689","FELD","Zürich, Feldeggstrasse","2012-10-01 08:10:42 AM","0.43","8.552318333333334","47.36029166666667"
"305","2","2612","KRES","Zürich, Kreuzstrasse","2012-10-01 08:12:00 AM","0.18","8.549910555555556","47.36291444444444"
"305","2","2104","OPER","Zürich, Opernhaus","2012-10-01 08:13:12 AM","0.53","8.547371666666667","47.36560138888889"
"305","2","1565","BELL","Zürich, Bellevue","2012-10-01 08:15:12 AM","1.03","8.544831666666667","47.36696611111111"
"305","2","2590","BURK","Zürich, Bürkliplatz","2012-10-01 08:17:24 AM","3.32","8.540955","47.366463333333336"
"305","2","2228","BOES","Zürich, Börsenstrasse","2012-10-01 08:19:00 AM","3.87","8.539842777777778","47.36837194444445"
"305","2","1528","PARA","Zürich, Paradeplatz","2012-10-01 08:20:06 AM","4.37","8.538715","47.369552222222225"
"305","2","2657","SIHS","Zürich, Sihlstrasse","2012-10-01 08:21:48 AM","4.28","8.534576944444444","47.372425"
"305","2","1502","STAU","Zürich, Stauffacher","2012-10-01 08:23:48 AM","5.18","8.529235","47.37343805555555"
"305","2","1306","BEZI","Zürich, Bezirksgebäude","2012-10-01 08:26:12 AM","4.03","8.525395555555555","47.37412166666667"
"305","2","1906","KALK","Zürich, Kalkbreite","2012-10-01 08:27:36 AM","3.87","8.520745555555555","47.37466027777778"
"305","2","2248","LOCH","Zürich, Lochergut","2012-10-01 08:28:54 AM","4.02","8.517121111111111","47.3755125"
"305","2","2250","ZYPR","Zürich, Zypressenstrasse","2012-10-01 08:30:06 AM","3.72","8.513573055555556","47.37685888888889"
"305","2","1535","ALBP","Zürich, Albisriederplatz","2012-10-01 08:31:30 AM","3.5","8.510094444444444","47.37838444444444"
"305","2","2245","LETG","Zürich, Letzigrund","2012-10-01 08:33:24 AM","3.27","8.503504722222223","47.38129694444444"
"305","2","2253","FREI","Zürich, Freihofstrasse","2012-10-01 08:34:36 AM","3.07","8.499385555555556","47.38326861111111"
"305","2","2244","KAPP","Zürich, Kappeli","2012-10-01 08:35:48 AM","3.05","8.494669444444444","47.38520972222222"
"305","2","2770","GRIM","Zürich, Grimselstrasse","2012-10-01 08:37:24 AM","2.93","8.489712777777777","47.387045"
"305","2","2535","LIND","Zürich, Lindenplatz","2012-10-01 08:38:36 AM","2.78","8.485795277777777","47.38788111111111"
"305","2","2818","BACH","Zürich, Bachmattstrasse","2012-10-01 08:39:48 AM","2.58","8.482602222222223","47.389178333333334"
"305","2","1310","FARB","Zürich, Farbhof","2012-10-01 08:41:00 AM","2.68","8.47908111111111","47.39064944444444"
"305","2","1310","FARB","Zürich, Farbhof","2012-10-01 08:43:00 AM","1.37","8.47908111111111","47.39064944444444"
"305","2","2818","BACH","Zürich, Bachmattstrasse","2012-10-01 08:43:54 AM","1.12","8.482995833333334","47.38898583333334"
"305","2","2535","LIND","Zürich, Lindenplatz","2012-10-01 08:44:42 AM","1.27","8.486349722222222","47.38777722222222"
"305","2","2770","GRIM","Zürich, Grimselstrasse","2012-10-01 08:45:54 AM","1.2","8.490318888888888","47.386895555555554"
"305","2","2244","KAPP","Zürich, Kappeli","2012-10-01 08:47:30 AM","1.02","8.495116944444444","47.385061944444445"
"305","2","2253","FREI","Zürich, Freihofstrasse","2012-10-01 08:48:42 AM","0.95","8.499870833333333","47.38303027777778"
"305","2","2245","LETG","Zürich, Letzigrund","2012-10-01 08:49:54 AM","0.93","8.50382","47.38115888888889"
"305","2","1535","ALBP","Zürich, Albisriederplatz","2012-10-01 08:51:18 AM","1.05","8.51051388888889","47.37817361111111"
"305","2","2250","ZYPR","Zürich, Zypressenstrasse","2012-10-01 08:52:36 AM","1.0","8.513966111111111","47.3766575"
"305","2","2248","LOCH","Zürich, Lochergut","2012-10-01 08:53:42 AM","0.88","8.517727777777777","47.375344444444444"
"305","2","1906","KALK","Zürich, Kalkbreite","2012-10-01 08:55:12 AM","1.03","8.5212725","47.37452944444444"
"305","2","1306","BEZI","Zürich, Bezirksgebäude","2012-10-01 08:56:30 AM","1.08","8.525868611111111","47.37394638888889"
"305","2","1502","STAU","Zürich, Stauffacher","2012-10-01 08:58:12 AM","0.98","8.530297222222222","47.37358972222222"
"305","2","2657","SIHS","Zürich, Sihlstrasse","2012-10-01 09:01:00 AM","1.13","8.534823333333334","47.372170833333335"
"305","2","1528","PARA","Zürich, Paradeplatz","2012-10-01 09:02:42 AM","1.0","8.53917888888889","47.369574722222225"
"305","2","2228","BOES","Zürich, Börsenstrasse","2012-10-01 09:04:24 AM","0.35","8.539835833333333","47.36803916666667"
"305","2","2590","BURK","Zürich, Bürkliplatz","2012-10-01 09:05:54 AM","0.18","8.541765833333333","47.36660861111111"
"305","2","1565","BELL","Zürich, Bellevue","2012-10-01 09:07:48 AM","-0.05","8.545332777777778","47.36687138888889"
"305","2","2104","OPER","Zürich, Opernhaus","2012-10-01 09:09:36 AM","0.0","8.547723055555556","47.36531027777778"
"305","2","2612","KRES","Zürich, Kreuzstrasse","2012-10-01 09:10:42 AM","0.02","8.5496","47.36325027777778"
"305","2","2689","FELD","Zürich, Feldeggstrasse","2012-10-01 09:11:54 AM","-0.17","8.552069722222223","47.36042888888889"
"305","2","2615","HOES","Zürich, Höschgasse","2012-10-01 09:13:06 AM","-0.38","8.554345277777777","47.35782527777778"
"305","2","2680","FROE","Zürich, Fröhlichstrasse","2012-10-01 09:14:24 AM","-0.32","8.557001111111111","47.355065"
"305","2","2651","WILD","Zürich, Wildbachstrasse","2012-10-01 09:15:24 AM","-0.4","8.5588925","47.35310388888889"
"305","2","2788","BTIE","Zürich, Bahnhof Tiefenbrunnen","2012-10-01 09:16:30 AM","0.03","8.561023055555555","47.35057333333334"
"305","2","2788","BTIE","Zürich, Bahnhof Tiefenbrunnen","2012-10-01 09:21:30 AM","0.4","8.561023055555555","47.35057333333334"
"305","2","2651","WILD","Zürich, Wildbachstrasse","2012-10-01 09:22:30 AM","0.15","8.558699444444445","47.35337555555556"
"305","2","2680","FROE","Zürich, Fröhlichstrasse","2012-10-01 09:23:30 AM","-0.05","8.556808888888888","47.35537277777778"
"305","2","2615","HOES","Zürich, Höschgasse","2012-10-01 09:24:36 AM","0.03","8.554178055555555","47.35806083333333"
"305","2","2689","FELD","Zürich, Feldeggstrasse","2012-10-01 09:25:42 AM","0.8","8.552318333333334","47.36029166666667"
"305","2","2612","KRES","Zürich, Kreuzstrasse","2012-10-01 09:27:00 AM","0.73","8.549910555555556","47.36291444444444"
"305","2","2104","OPER","Zürich, Opernhaus","2012-10-01 09:28:12 AM","0.95","8.547371666666667","47.36560138888889"
"305","2","1565","BELL","Zürich, Bellevue","2012-10-01 09:30:18 AM","0.73","8.544831666666667","47.36696611111111"
"305","2","2590","BURK","Zürich, Bürkliplatz","2012-10-01 09:32:24 AM","0.82","8.540955","47.366463333333336"
"305","2","2228","BOES","Zürich, Börsenstrasse","2012-10-01 09:34:00 AM","0.73","8.539842777777778","47.36837194444445"
"305","2","1528","PARA","Zürich, Paradeplatz","2012-10-01 09:35:00 AM","0.82","8.538715","47.369552222222225"
"305","2","2657","SIHS","Zürich, Sihlstrasse","2012-10-01 09:37:00 AM","0.9","8.534576944444444","47.372425"
"305","2","1502","STAU","Zürich, Stauffacher","2012-10-01 09:39:00 AM","0.82","8.529235","47.37343805555555"
"305","2","1306","BEZI","Zürich, Bezirksgebäude","2012-10-01 09:41:24 AM","0.33","8.525395555555555","47.37412166666667"
"305","2","1906","KALK","Zürich, Kalkbreite","2012-10-01 09:42:42 AM","0.3","8.520745555555555","47.37466027777778"
"305","2","2248","LOCH","Zürich, Lochergut","2012-10-01 09:44:06 AM","0.2","8.517121111111111","47.3755125"
"305","2","2250","ZYPR","Zürich, Zypressenstrasse","2012-10-01 09:45:18 AM","0.03","8.513573055555556","47.37685888888889"
"305","2","1535","ALBP","Zürich, Albisriederplatz","2012-10-01 09:46:42 AM","-0.12","8.510094444444444","47.37838444444444"
"305","2","2245","LETG","Zürich, Letzigrund","2012-10-01 09:48:30 AM","-0.38","8.503504722222223","47.38129694444444"
"305","2","2253","FREI","Zürich, Freihofstrasse","2012-10-01 09:49:42 AM","-0.43","8.499385555555556","47.38326861111111"
"305","2","2244","KAPP","Zürich, Kappeli","2012-10-01 09:50:54 AM","-0.45","8.494669444444444","47.38520972222222"
"305","2","2770","GRIM","Zürich, Grimselstrasse","2012-10-01 09:52:24 AM","-0.53","8.489712777777777","47.387045"
"305","2","2535","LIND","Zürich, Lindenplatz","2012-10-01 09:53:36 AM","-0.67","8.485795277777777","47.38788111111111"
"305","2","2818","BACH","Zürich, Bachmattstrasse","2012-10-01 09:54:42 AM","-0.47","8.482602222222223","47.389178333333334"
"305","2","1310","FARB","Zürich, Farbhof","2012-10-01 09:55:54 AM","-0.37","8.47908111111111","47.39064944444444"
"305","2","1310","FARB","Zürich, Farbhof","2012-10-01 09:58:00 AM","0.22","8.47908111111111","47.39064944444444"
"305","2","2818","BACH","Zürich, Bachmattstrasse","2012-10-01 09:58:54 AM","-0.05","8.482995833333334","47.38898583333334"
"305","2","2535","LIND","Zürich, Lindenplatz","2012-10-01 09:59:42 AM","0.08","8.486349722222222","47.38777722222222"
"305","2","2770","GRIM","Zürich, Grimselstrasse","2012-10-01 10:00:54 AM","0.28","8.490318888888888","47.386895555555554"
"305","2","2244","KAPP","Zürich, Kappeli","2012-10-01 10:02:30 AM","-0.1","8.495116944444444","47.385061944444445"
"305","2","2253","FREI","Zürich, Freihofstrasse","2012-10-01 10:03:42 AM","-0.08","8.499870833333333","47.38303027777778"
"305","2","2245","LETG","Zürich, Letzigrund","2012-10-01 10:04:54 AM","-0.17","8.50382","47.38115888888889"
"305","2","1535","ALBP","Zürich, Albisriederplatz","2012-10-01 10:06:18 AM","-0.13","8.51051388888889","47.37817361111111"
"305","2","2250","ZYPR","Zürich, Zypressenstrasse","2012-10-01 10:07:36 AM","-0.08","8.513966111111111","47.3766575"
"305","2","2248","LOCH","Zürich, Lochergut","2012-10-01 10:08:42 AM","-0.23","8.517727777777777","47.375344444444444"
"305","2","1906","KALK","Zürich, Kalkbreite","2012-10-01 10:10:12 AM","-0.42","8.5212725","47.37452944444444"
"305","2","1306","BEZI","Zürich, Bezirksgebäude","2012-10-01 10:11:30 AM","-0.4","8.525868611111111","47.37394638888889"
"305","2","1502","STAU","Zürich, Stauffacher","2012-10-01 10:13:12 AM","-0.38","8.530297222222222","47.37358972222222"
"305","2","2657","SIHS","Zürich, Sihlstrasse","2012-10-01 10:16:00 AM","0.9","8.534823333333334","47.372170833333335"
"305","2","1528","PARA","Zürich, Paradeplatz","2012-10-01 10:17:42 AM","0.88","8.53917888888889","47.369574722222225"
"305","2","2228","BOES","Zürich, Börsenstrasse","2012-10-01 10:19:24 AM","0.3","8.539835833333333","47.36803916666667"
"305","2","2590","BURK","Zürich, Bürkliplatz","2012-10-01 10:20:54 AM","0.27","8.541765833333333","47.36660861111111"
"305","2","1565","BELL","Zürich, Bellevue","2012-10-01 10:22:48 AM","0.05","8.545332777777778","47.36687138888889"
"305","2","2104","OPER","Zürich, Opernhaus","2012-10-01 10:24:36 AM","0.17","8.547723055555556","47.36531027777778"
"305","2","2612","KRES","Zürich, Kreuzstrasse","2012-10-01 10:25:42 AM","0.22","8.5496","47.36325027777778"
"305","2","2689","FELD","Zürich, Feldeggstrasse","2012-10-01 10:26:54 AM","0.12","8.552069722222223","47.36042888888889"
"305","2","2615","HOES","Zürich, Höschgasse","2012-10-01 10:28:06 AM","-0.12","8.554345277777777","47.35782527777778"
"305","2","2680","FROE","Zürich, Fröhlichstrasse","2012-10-01 10:29:24 AM","0.13","8.557001111111111","47.355065"
"305","2","2651","WILD","Zürich, Wildbachstrasse","2012-10-01 10:30:24 AM","0.13","8.5588925","47.35310388888889"
"305","2","2788","BTIE","Zürich, Bahnhof Tiefenbrunnen","2012-10-01 10:31:30 AM","0.42","8.561023055555555","47.35057333333334"
"305","2","2788","BTIE","Zürich, Bahnhof Tiefenbrunnen","2012-10-01 10:36:30 AM","0.17","8.561023055555555","47.35057333333334"
"305","2","2651","WILD","Zürich, Wildbachstrasse","2012-10-01 10:37:30 AM","0.02","8.558699444444445","47.35337555555556"
"305","2","2680","FROE","Zürich, Fröhlichstrasse","2012-10-01 10:38:30 AM","-0.07","8.556808888888888","47.35537277777778"
"305","2","2615","HOES","Zürich, Höschgasse","2012-10-01 10:39:36 AM","0.05","8.554178055555555","47.35806083333333"
"305","2","2689","FELD","Zürich, Feldeggstrasse","2012-10-01 10:40:42 AM","-0.18","8.552318333333334","47.36029166666667"
"305","2","2612","KRES","Zürich, Kreuzstrasse","2012-10-01 10:42:00 AM","-0.5","8.549910555555556","47.36291444444444"
"305","2","2104","OPER","Zürich, Opernhaus","2012-10-01 10:43:12 AM","-0.18","8.547371666666667","47.36560138888889"
"305","2","1565","BELL","Zürich, Bellevue","2012-10-01 10:45:18 AM","0.03","8.544831666666667","47.36696611111111"
"305","2","2590","BURK","Zürich, Bürkliplatz","2012-10-01 10:47:24 AM","0.88","8.540955","47.366463333333336"
"305","2","2228","BOES","Zürich, Börsenstrasse","2012-10-01 10:49:00 AM","0.77","8.539842777777778","47.36837194444445"
"305","2","1528","PARA","Zürich, Paradeplatz","2012-10-01 10:50:00 AM","0.83","8.538715","47.369552222222225"
"305","2","2657","SIHS","Zürich, Sihlstrasse","2012-10-01 10:52:00 AM","0.45","8.534576944444444","47.372425"
"305","2","1502","STAU","Zürich, Stauffacher","2012-10-01 10:54:00 AM","0.22","8.529235","47.37343805555555"
"305","2","1306","BEZI","Zürich, Bezirksgebäude","2012-10-01 10:56:24 AM","0.58","8.525395555555555","47.37412166666667"
"305","2","1906","KALK","Zürich, Kalkbreite","2012-10-01 10:57:42 AM","0.57","8.520745555555555","47.37466027777778"
"305","2","2248","LOCH","Zürich, Lochergut","2012-10-01 10:59:06 AM","0.88","8.517121111111111","47.3755125"
"305","2","2250","ZYPR","Zürich, Zypressenstrasse","2012-10-01 11:00:18 AM","0.82","8.513573055555556","47.37685888888889"
"305","2","1535","ALBP","Zürich, Albisriederplatz","2012-10-01 11:01:42 AM","0.78","8.510094444444444","47.37838444444444"
"305","2","2245","LETG","Zürich, Letzigrund","2012-10-01 11:03:30 AM","0.78","8.503504722222223","47.38129694444444"
"305","2","2253","FREI","Zürich, Freihofstrasse","2012-10-01 11:04:42 AM","0.7","8.499385555555556","47.38326861111111"
"305","2","2244","KAPP","Zürich, Kappeli","2012-10-01 11:05:54 AM","0.7","8.494669444444444","47.38520972222222"
"305","2","2770","GRIM","Zürich, Grimselstrasse","2012-10-01 11:07:24 AM","0.63","8.489712777777777","47.387045"
"305","2","2535","LIND","Zürich, Lindenplatz","2012-10-01 11:08:36 AM","0.48","8.485795277777777","47.38788111111111"
"305","2","2818","BACH","Zürich, Bachmattstrasse","2012-10-01 11:09:42 AM","0.48","8.482602222222223","47.389178333333334"
"305","2","1310","FARB","Zürich, Farbhof","2012-10-01 11:10:54 AM","0.77","8.47908111111111","47.39064944444444"
"305","2","1310","FARB","Zürich, Farbhof","2012-10-01 11:13:00 AM","0.48","8.47908111111111","47.39064944444444"
"305","2","2818","BACH","Zürich, Bachmattstrasse","2012-10-01 11:13:54 AM","0.3","8.482995833333334","47.38898583333334"
"305","2","2535","LIND","Zürich, Lindenplatz","2012-10-01 11:14:42 AM","0.45","8.486349722222222","47.38777722222222"
"305","2","2770","GRIM","Zürich, Grimselstrasse","2012-10-01 11:15:54 AM","0.4","8.490318888888888","47.386895555555554"
"305","2","2244","KAPP","Zürich, Kappeli","2012-10-01 11:17:30 AM","0.35","8.495116944444444","47.385061944444445"
"305","2","2253","FREI","Zürich, Freihofstrasse","2012-10-01 11:18:42 AM","0.45","8.499870833333333","47.38303027777778"
"305","2","2245","LETG","Zürich, Letzigrund","2012-10-01 11:19:54 AM","0.42","8.50382","47.38115888888889"
"305","2","1535","ALBP","Zürich, Albisriederplatz","2012-10-01 11:21:18 AM","0.55","8.51051388888889","47.37817361111111"
"305","2","2250","ZYPR","Zürich, Zypressenstrasse","2012-10-01 11:22:36 AM","0.52","8.513966111111111","47.3766575"
"305","2","2248","LOCH","Zürich, Lochergut","2012-10-01 11:23:42 AM","0.42","8.517727777777777","47.375344444444444"
"305","2","1906","KALK","Zürich, Kalkbreite","2012-10-01 11:25:12 AM","0.23","8.5212725","47.37452944444444"
"305","2","1306","BEZI","Zürich, Bezirksgebäude","2012-10-01 11:26:30 AM","0.68","8.525868611111111","47.37394638888889"
"305","2","1502","STAU","Zürich, Stauffacher","2012-10-01 11:28:12 AM","0.63","8.530297222222222","47.37358972222222"
"305","2","2657","SIHS","Zürich, Sihlstrasse","2012-10-01 11:31:00 AM","0.68","8.534823333333334","47.372170833333335"
"305","2","1528","PARA","Zürich, Paradeplatz","2012-10-01 11:32:42 AM","0.95","8.53917888888889","47.369574722222225"
"305","2","2228","BOES","Zürich, Börsenstrasse","2012-10-01 11:34:24 AM","0.47","8.539835833333333","47.36803916666667"
"305","2","2590","BURK","Zürich, Bürkliplatz","2012-10-01 11:35:54 AM","0.35","8.541765833333333","47.36660861111111"
"305","2","1565","BELL","Zürich, Bellevue","2012-10-01 11:37:48 AM","-0.07","8.545332777777778","47.36687138888889"
"305","2","2104","OPER","Zürich, Opernhaus","2012-10-01 11:39:36 AM","0.12","8.547723055555556","47.36531027777778"
"305","2","2612","KRES","Zürich, Kreuzstrasse","2012-10-01 11:40:42 AM","0.18","8.5496","47.36325027777778"
"305","2","2689","FELD","Zürich, Feldeggstrasse","2012-10-01 11:41:54 AM","0.8","8.552069722222223","47.36042888888889"
"305","2","2615","HOES","Zürich, Höschgasse","2012-10-01 11:43:06 AM","0.63","8.554345277777777","47.35782527777778"
"305","2","2680","FROE","Zürich, Fröhlichstrasse","2012-10-01 11:44:24 AM","0.62","8.557001111111111","47.355065"
"305","2","2651","WILD","Zürich, Wildbachstrasse","2012-10-01 11:45:24 AM","0.52","8.5588925","47.35310388888889"
"305","2","2788","BTIE","Zürich, Bahnhof Tiefenbrunnen","2012-10-01 11:46:30 AM","0.9","8.561023055555555","47.35057333333334"
"305","2","2788","BTIE","Zürich, Bahnhof Tiefenbrunnen","2012-10-01 11:51:30 AM","0.27","8.561023055555555","47.35057333333334"
"305","2","2651","WILD","Zürich, Wildbachstrasse","2012-10-01 11:52:30 AM","0.27","8.558699444444445","47.35337555555556"
"305","2","2680","FROE","Zürich, Fröhlichstrasse","2012-10-01 11:53:30 AM","0.25","8.556808888888888","47.35537277777778"
"305","2","2615","HOES","Zürich, Höschgasse","2012-10-01 11:54:36 AM","0.68","8.554178055555555","47.35806083333333"
"305","2","2689","FELD","Zürich, Feldeggstrasse","2012-10-01 11:55:42 AM","0.5","8.552318333333334","47.36029166666667"
"305","2","2612","KRES","Zürich, Kreuzstrasse","2012-10-01 11:57:00 AM","0.4","8.549910555555556","47.36291444444444"
"305","2","2104","OPER","Zürich, Opernhaus","2012-10-01 11:58:12 AM","0.52","8.547371666666667","47.36560138888889"
"305","2","1565","BELL","Zürich, Bellevue","2012-10-01 12:00:18 PM","0.18","8.544831666666667","47.36696611111111"
"305","2","2590","BURK","Zürich, Bürkliplatz","2012-10-01 12:02:24 PM","0.63","8.540955","47.366463333333336"
"305","2","2228","BOES","Zürich, Börsenstrasse","2012-10-01 12:04:00 PM","0.28","8.539842777777778","47.36837194444445"
"305","2","1528","PARA","Zürich, Paradeplatz","2012-10-01 12:05:00 PM","0.57","8.538715","47.369552222222225"
"305","2","2657","SIHS","Zürich, Sihlstrasse","2012-10-01 12:07:00 PM","1.07","8.534576944444444","47.372425"
"305","2","1502","STAU","Zürich, Stauffacher","2012-10-01 12:09:00 PM","0.78","8.529235","47.37343805555555"
"305","2","1306","BEZI","Zürich, Bezirksgebäude","2012-10-01 12:11:24 PM","0.77","8.525395555555555","47.37412166666667"
"305","2","1906","KALK","Zürich, Kalkbreite","2012-10-01 12:12:42 PM","0.73","8.520745555555555","47.37466027777778"
"305","2","2248","LOCH","Zürich, Lochergut","2012-10-01 12:14:06 PM","0.4","8.517121111111111","47.3755125"
"305","2","2250","ZYPR","Zürich, Zypressenstrasse","2012-10-01 12:15:18 PM","0.12","8.513573055555556","47.37685888888889"
"305","2","1535","ALBP","Zürich, Albisriederplatz","2012-10-01 12:16:42 PM","-0.02","8.510094444444444","47.37838444444444"
"305","2","2245","LETG","Zürich, Letzigrund","2012-10-01 12:18:30 PM","0.5","8.503504722222223","47.38129694444444"
"305","2","2253","FREI","Zürich, Freihofstrasse","2012-10-01 12:19:42 PM","0.38","8.499385555555556","47.38326861111111"
"305","2","2244","KAPP","Zürich, Kappeli","2012-10-01 12:20:54 PM","0.4","8.494669444444444","47.38520972222222"
"305","2","2770","GRIM","Zürich, Grimselstrasse","2012-10-01 12:22:24 PM","0.37","8.489712777777777","47.387045"
"305","2","2535","LIND","Zürich, Lindenplatz","2012-10-01 12:23:36 PM","0.2","8.485795277777777","47.38788111111111"
"305","2","2818","BACH","Zürich, Bachmattstrasse","2012-10-01 12:24:42 PM","0.23","8.482602222222223","47.389178333333334"
"305","2","1310","FARB","Zürich, Farbhof","2012-10-01 12:25:54 PM","0.43","8.47908111111111","47.39064944444444"
"305","2","1310","FARB","Zürich, Farbhof","2012-10-01 12:28:00 PM","1.18","8.47908111111111","47.39064944444444"
"305","2","2818","BACH","Zürich, Bachmattstrasse","2012-10-01 12:28:54 PM","0.98","8.482995833333334","47.38898583333334"
"305","2","2535","LIND","Zürich, Lindenplatz","2012-10-01 12:29:42 PM","1.08","8.486349722222222","47.38777722222222"
"305","2","2770","GRIM","Zürich, Grimselstrasse","2012-10-01 12:30:54 PM","0.98","8.490318888888888","47.386895555555554"
"305","2","2244","KAPP","Zürich, Kappeli","2012-10-01 12:32:30 PM","0.93","8.495116944444444","47.385061944444445"
"305","2","2253","FREI","Zürich, Freihofstrasse","2012-10-01 12:33:42 PM","1.12","8.499870833333333","47.38303027777778"
"305","2","2245","LETG","Zürich, Letzigrund","2012-10-01 12:34:54 PM","1.03","8.50382","47.38115888888889"
"305","2","1535","ALBP","Zürich, Albisriederplatz","2012-10-01 12:36:18 PM","1.02","8.51051388888889","47.37817361111111"
"305","2","2250","ZYPR","Zürich, Zypressenstrasse","2012-10-01 12:37:36 PM","1.02","8.513966111111111","47.3766575"
"305","2","2248","LOCH","Zürich, Lochergut","2012-10-01 12:38:42 PM","0.88","8.517727777777777","47.375344444444444"
"305","2","1906","KALK","Zürich, Kalkbreite","2012-10-01 12:40:12 PM","0.87","8.5212725","47.37452944444444"
"305","2","1306","BEZI","Zürich, Bezirksgebäude","2012-10-01 12:41:30 PM","1.13","8.525868611111111","47.37394638888889"
"305","2","1502","STAU","Zürich, Stauffacher","2012-10-01 12:43:12 PM","1.1","8.530297222222222","47.37358972222222"
"305","2","2657","SIHS","Zürich, Sihlstrasse","2012-10-01 12:46:00 PM","0.72","8.534823333333334","47.372170833333335"
"305","2","1528","PARA","Zürich, Paradeplatz","2012-10-01 12:47:42 PM","0.78","8.53917888888889","47.369574722222225"
"305","2","2228","BOES","Zürich, Börsenstrasse","2012-10-01 12:49:24 PM","0.42","8.539835833333333","47.36803916666667"
"305","2","2590","BURK","Zürich, Bürkliplatz","2012-10-01 12:50:54 PM","0.38","8.541765833333333","47.36660861111111"
"305","2","1565","BELL","Zürich, Bellevue","2012-10-01 12:52:48 PM","0.0","8.545332777777778","47.36687138888889"
"305","2","2104","OPER","Zürich, Opernhaus","2012-10-01 12:54:36 PM","0.15","8.547723055555556","47.36531027777778"
"305","2","2612","KRES","Zürich, Kreuzstrasse","2012-10-01 12:55:42 PM","0.27","8.5496","47.36325027777778"
"305","2","2689","FELD","Zürich, Feldeggstrasse","2012-10-01 12:56:54 PM","0.45","8.552069722222223","47.36042888888889"
"305","2","2615","HOES","Zürich, Höschgasse","2012-10-01 12:58:06 PM","0.43","8.554345277777777","47.35782527777778"
"305","2","2680","FROE","Zürich, Fröhlichstrasse","2012-10-01 12:59:24 PM","0.42","8.557001111111111","47.355065"
"305","2","2651","WILD","Zürich, Wildbachstrasse","2012-10-01 01:00:24 PM","0.55","8.5588925","47.35310388888889"
"305","2","2788","BTIE","Zürich, Bahnhof Tiefenbrunnen","2012-10-01 01:01:30 PM","0.92","8.561023055555555","47.35057333333334"
"305","2","2788","BTIE","Zürich, Bahnhof Tiefenbrunnen","2012-10-01 01:06:30 PM","0.6","8.561023055555555","47.35057333333334"
"305","2","2651","WILD","Zürich, Wildbachstrasse","2012-10-01 01:07:30 PM","0.48","8.558699444444445","47.35337555555556"
"305","2","2680","FROE","Zürich, Fröhlichstrasse","2012-10-01 01:08:30 PM","0.37","8.556808888888888","47.35537277777778"
"305","2","2615","HOES","Zürich, Höschgasse","2012-10-01 01:09:36 PM","0.58","8.554178055555555","47.35806083333333"
"305","2","2689","FELD","Zürich, Feldeggstrasse","2012-10-01 01:10:42 PM","0.57","8.552318333333334","47.36029166666667"
"305","2","2612","KRES","Zürich, Kreuzstrasse","2012-10-01 01:12:00 PM","0.27","8.549910555555556","47.36291444444444"
"305","2","2104","OPER","Zürich, Opernhaus","2012-10-01 01:13:12 PM","0.43","8.547371666666667","47.36560138888889"
"305","2","1565","BELL","Zürich, Bellevue","2012-10-01 01:15:18 PM","0.02","8.544831666666667","47.36696611111111"
"305","2","2590","BURK","Zürich, Bürkliplatz","2012-10-01 01:17:24 PM","0.28","8.540955","47.366463333333336"
"305","2","2228","BOES","Zürich, Börsenstrasse","2012-10-01 01:19:00 PM","0.28","8.539842777777778","47.36837194444445"
"305","2","1528","PARA","Zürich, Paradeplatz","2012-10-01 01:20:00 PM","0.52","8.538715","47.369552222222225"
"305","2","2657","SIHS","Zürich, Sihlstrasse","2012-10-01 01:22:00 PM","0.38","8.534576944444444","47.372425"
"305","2","1502","STAU","Zürich, Stauffacher","2012-10-01 01:24:00 PM","0.53","8.529235","47.37343805555555"
"305","2","1306","BEZI","Zürich, Bezirksgebäude","2012-10-01 01:26:24 PM","0.75","8.525395555555555","47.37412166666667"
"305","2","1906","KALK","Zürich, Kalkbreite","2012-10-01 01:27:42 PM","0.63","8.520745555555555","47.37466027777778"
"305","2","2248","LOCH","Zürich, Lochergut","2012-10-01 01:29:06 PM","0.83","8.517121111111111","47.3755125"
"305","2","2250","ZYPR","Zürich, Zypressenstrasse","2012-10-01 01:30:18 PM","1.07","8.513573055555556","47.37685888888889"
"305","2","1535","ALBP","Zürich, Albisriederplatz","2012-10-01 01:31:42 PM","0.83","8.510094444444444","47.37838444444444"
"305","2","2245","LETG","Zürich, Letzigrund","2012-10-01 01:33:30 PM","0.88","8.503504722222223","47.38129694444444"
"305","2","2253","FREI","Zürich, Freihofstrasse","2012-10-01 01:34:42 PM","0.68","8.499385555555556","47.38326861111111"
"305","2","2244","KAPP","Zürich, Kappeli","2012-10-01 01:35:54 PM","0.9","8.494669444444444","47.38520972222222"
"305","2","2770","GRIM","Zürich, Grimselstrasse","2012-10-01 01:37:24 PM","0.87","8.489712777777777","47.387045"
"305","2","2535","LIND","Zürich, Lindenplatz","2012-10-01 01:38:36 PM","0.68","8.485795277777777","47.38788111111111"
"305","2","2818","BACH","Zürich, Bachmattstrasse","2012-10-01 01:39:42 PM","0.82","8.482602222222223","47.389178333333334"
"305","2","1310","FARB","Zürich, Farbhof","2012-10-01 01:40:54 PM","1.1","8.47908111111111","47.39064944444444"
"305","2","1310","FARB","Zürich, Farbhof","2012-10-01 01:43:00 PM","0.4","8.47908111111111","47.39064944444444"
"305","2","2818","BACH","Zürich, Bachmattstrasse","2012-10-01 01:43:54 PM","0.25","8.482995833333334","47.38898583333334"
"305","2","2535","LIND","Zürich, Lindenplatz","2012-10-01 01:44:42 PM","0.55","8.486349722222222","47.38777722222222"
"305","2","2770","GRIM","Zürich, Grimselstrasse","2012-10-01 01:45:54 PM","0.48","8.490318888888888","47.386895555555554"
"305","2","2244","KAPP","Zürich, Kappeli","2012-10-01 01:47:30 PM","0.48","8.495116944444444","47.385061944444445"
"305","2","2253","FREI","Zürich, Freihofstrasse","2012-10-01 01:48:42 PM","0.47","8.499870833333333","47.38303027777778"
"305","2","2245","LETG","Zürich, Letzigrund","2012-10-01 01:49:54 PM","0.33","8.50382","47.38115888888889"
"305","2","1535","ALBP","Zürich, Albisriederplatz","2012-10-01 01:51:18 PM","0.45","8.51051388888889","47.37817361111111"
"305","2","2250","ZYPR","Zürich, Zypressenstrasse","2012-10-01 01:52:36 PM","0.5","8.513966111111111","47.3766575"
"305","2","2248","LOCH","Zürich, Lochergut","2012-10-01 01:53:42 PM","0.47","8.517727777777777","47.375344444444444"
"305","2","1906","KALK","Zürich, Kalkbreite","2012-10-01 01:55:12 PM","0.25","8.5212725","47.37452944444444"
"305","2","1306","BEZI","Zürich, Bezirksgebäude","2012-10-01 01:56:30 PM","0.6","8.525868611111111","47.37394638888889"
"305","2","1502","STAU","Zürich, Stauffacher","2012-10-01 01:58:12 PM","0.5","8.530297222222222","47.37358972222222"
"305","2","2657","SIHS","Zürich, Sihlstrasse","2012-10-01 02:01:00 PM","0.5","8.534823333333334","47.372170833333335"
"305","2","1528","PARA","Zürich, Paradeplatz","2012-10-01 02:02:42 PM","0.73","8.53917888888889","47.369574722222225"
"305","2","2228","BOES","Zürich, Börsenstrasse","2012-10-01 02:04:24 PM","0.28","8.539835833333333","47.36803916666667"
"305","2","2590","BURK","Zürich, Bürkliplatz","2012-10-01 02:05:54 PM","0.3","8.541765833333333","47.36660861111111"
"305","2","1565","BELL","Zürich, Bellevue","2012-10-01 02:07:48 PM","0.0","8.545332777777778","47.36687138888889"
"305","2","2104","OPER","Zürich, Opernhaus","2012-10-01 02:09:36 PM","0.2","8.547723055555556","47.36531027777778"
"305","2","2612","KRES","Zürich, Kreuzstrasse","2012-10-01 02:10:42 PM","0.15","8.5496","47.36325027777778"
"305","2","2689","FELD","Zürich, Feldeggstrasse","2012-10-01 02:11:54 PM","0.28","8.552069722222223","47.36042888888889"
"305","2","2615","HOES","Zürich, Höschgasse","2012-10-01 02:13:06 PM","0.25","8.554345277777777","47.35782527777778"
"305","2","2680","FROE","Zürich, Fröhlichstrasse","2012-10-01 02:14:24 PM","0.23","8.557001111111111","47.355065"
"305","2","2651","WILD","Zürich, Wildbachstrasse","2012-10-01 02:15:24 PM","0.3","8.5588925","47.35310388888889"
"305","2","2788","BTIE","Zürich, Bahnhof Tiefenbrunnen","2012-10-01 02:16:30 PM","0.68","8.561023055555555","47.35057333333334"
"305","2","2788","BTIE","Zürich, Bahnhof Tiefenbrunnen","2012-10-01 02:21:30 PM","0.28","8.561023055555555","47.35057333333334"
"305","2","2651","WILD","Zürich, Wildbachstrasse","2012-10-01 02:22:30 PM","0.25","8.558699444444445","47.35337555555556"
"305","2","2680","FROE","Zürich, Fröhlichstrasse","2012-10-01 02:23:30 PM","0.28","8.556808888888888","47.35537277777778"
"305","2","2615","HOES","Zürich, Höschgasse","2012-10-01 02:24:36 PM","0.55","8.554178055555555","47.35806083333333"
"305","2","2689","FELD","Zürich, Feldeggstrasse","2012-10-01 02:25:42 PM","0.4","8.552318333333334","47.36029166666667"
"305","2","2612","KRES","Zürich, Kreuzstrasse","2012-10-01 02:27:00 PM","0.18","8.549910555555556","47.36291444444444"
"305","2","2104","OPER","Zürich, Opernhaus","2012-10-01 02:28:12 PM","0.35","8.547371666666667","47.36560138888889"
"305","2","1565","BELL","Zürich, Bellevue","2012-10-01 02:30:18 PM","0.2","8.544831666666667","47.36696611111111"
"305","2","2590","BURK","Zürich, Bürkliplatz","2012-10-01 02:32:24 PM","0.15","8.540955","47.366463333333336"
"305","2","2228","BOES","Zürich, Börsenstrasse","2012-10-01 02:34:00 PM","0.22","8.539842777777778","47.36837194444445"
"305","2","1528","PARA","Zürich, Paradeplatz","2012-10-01 02:35:00 PM","0.43","8.538715","47.369552222222225"
"305","2","2657","SIHS","Zürich, Sihlstrasse","2012-10-01 02:37:00 PM","0.45","8.534576944444444","47.372425"
"305","2","1502","STAU","Zürich, Stauffacher","2012-10-01 02:39:00 PM","0.5","8.529235","47.37343805555555"
"305","2","1306","BEZI","Zürich, Bezirksgebäude","2012-10-01 02:41:24 PM","0.07","8.525395555555555","47.37412166666667"
"305","2","1906","KALK","Zürich, Kalkbreite","2012-10-01 02:42:42 PM","0.4","8.520745555555555","47.37466027777778"
"305","2","2248","LOCH","Zürich, Lochergut","2012-10-01 02:44:06 PM","0.37","8.517121111111111","47.3755125"
"305","2","2250","ZYPR","Zürich, Zypressenstrasse","2012-10-01 02:45:18 PM","0.18","8.513573055555556","47.37685888888889"
"305","2","1535","ALBP","Zürich, Albisriederplatz","2012-10-01 02:46:42 PM","0.22","8.510094444444444","47.37838444444444"
"305","2","2245","LETG","Zürich, Letzigrund","2012-10-01 02:48:30 PM","0.53","8.503504722222223","47.38129694444444"
"305","2","2253","FREI","Zürich, Freihofstrasse","2012-10-01 02:49:42 PM","0.42","8.499385555555556","47.38326861111111"
"305","2","2244","KAPP","Zürich, Kappeli","2012-10-01 02:50:54 PM","0.37","8.494669444444444","47.38520972222222"
"305","2","2770","GRIM","Zürich, Grimselstrasse","2012-10-01 02:52:24 PM","0.4","8.489712777777777","47.387045"
"305","2","2535","LIND","Zürich, Lindenplatz","2012-10-01 02:53:36 PM","0.2","8.485795277777777","47.38788111111111"
"305","2","2818","BACH","Zürich, Bachmattstrasse","2012-10-01 02:54:42 PM","0.12","8.482602222222223","47.389178333333334"
"305","2","1310","FARB","Zürich, Farbhof","2012-10-01 02:55:54 PM","0.45","8.47908111111111","47.39064944444444"
"305","2","1310","FARB","Zürich, Farbhof","2012-10-01 02:58:00 PM","0.37","8.47908111111111","47.39064944444444"
"305","2","2818","BACH","Zürich, Bachmattstrasse","2012-10-01 02:58:54 PM","0.2","8.482995833333334","47.38898583333334"
"305","2","2535","LIND","Zürich, Lindenplatz","2012-10-01 02:59:42 PM","0.4","8.486349722222222","47.38777722222222"
"305","2","2770","GRIM","Zürich, Grimselstrasse","2012-10-01 03:00:54 PM","0.43","8.490318888888888","47.386895555555554"
"305","2","2244","KAPP","Zürich, Kappeli","2012-10-01 03:02:30 PM","0.42","8.495116944444444","47.385061944444445"
"305","2","2253","FREI","Zürich, Freihofstrasse","2012-10-01 03:03:42 PM","0.45","8.499870833333333","47.38303027777778"
"305","2","2245","LETG","Zürich, Letzigrund","2012-10-01 03:04:54 PM","0.37","8.50382","47.38115888888889"
"305","2","1535","ALBP","Zürich, Albisriederplatz","2012-10-01 03:06:18 PM","0.55","8.51051388888889","47.37817361111111"
"305","2","2250","ZYPR","Zürich, Zypressenstrasse","2012-10-01 03:07:36 PM","0.58","8.513966111111111","47.3766575"
"305","2","2248","LOCH","Zürich, Lochergut","2012-10-01 03:08:42 PM","0.45","8.517727777777777","47.375344444444444"
"305","2","1906","KALK","Zürich, Kalkbreite","2012-10-01 03:10:12 PM","0.27","8.5212725","47.37452944444444"
"305","2","1306","BEZI","Zürich, Bezirksgebäude","2012-10-01 03:11:30 PM","1.12","8.525868611111111","47.37394638888889"
"305","2","1502","STAU","Zürich, Stauffacher","2012-10-01 03:13:12 PM","0.9","8.530297222222222","47.37358972222222"
"305","2","2657","SIHS","Zürich, Sihlstrasse","2012-10-01 03:16:00 PM","0.6","8.534823333333334","47.372170833333335"
"305","2","1528","PARA","Zürich, Paradeplatz","2012-10-01 03:17:42 PM","0.82","8.53917888888889","47.369574722222225"
"305","2","2228","BOES","Zürich, Börsenstrasse","2012-10-01 03:19:24 PM","0.27","8.539835833333333","47.36803916666667"
"305","2","2590","BURK","Zürich, Bürkliplatz","2012-10-01 03:20:54 PM","0.4","8.541765833333333","47.36660861111111"
"305","2","1565","BELL","Zürich, Bellevue","2012-10-01 03:22:48 PM","0.03","8.545332777777778","47.36687138888889"
"305","2","2104","OPER","Zürich, Opernhaus","2012-10-01 03:24:36 PM","0.32","8.547723055555556","47.36531027777778"
"305","2","2612","KRES","Zürich, Kreuzstrasse","2012-10-01 03:25:42 PM","0.37","8.5496","47.36325027777778"
"305","2","2689","FELD","Zürich, Feldeggstrasse","2012-10-01 03:26:54 PM","0.42","8.552069722222223","47.36042888888889"
"305","2","2615","HOES","Zürich, Höschgasse","2012-10-01 03:28:06 PM","0.3","8.554345277777777","47.35782527777778"
"305","2","2680","FROE","Zürich, Fröhlichstrasse","2012-10-01 03:29:24 PM","0.47","8.557001111111111","47.355065"
"305","2","2651","WILD","Zürich, Wildbachstrasse","2012-10-01 03:30:24 PM","0.43","8.5588925","47.35310388888889"
"305","2","2788","BTIE","Zürich, Bahnhof Tiefenbrunnen","2012-10-01 03:31:30 PM","0.85","8.561023055555555","47.35057333333334"
"305","2","2788","BTIE","Zürich, Bahnhof Tiefenbrunnen","2012-10-01 03:36:30 PM","0.12","8.561023055555555","47.35057333333334"
"305","2","2651","WILD","Zürich, Wildbachstrasse","2012-10-01 03:37:30 PM","0.12","8.558699444444445","47.35337555555556"
"305","2","2680","FROE","Zürich, Fröhlichstrasse","2012-10-01 03:38:30 PM","0.18","8.556808888888888","47.35537277777778"
"305","2","2615","HOES","Zürich, Höschgasse","2012-10-01 03:39:36 PM","0.47","8.554178055555555","47.35806083333333"
"305","2","2689","FELD","Zürich, Feldeggstrasse","2012-10-01 03:40:42 PM","0.43","8.552318333333334","47.36029166666667"
"305","2","2612","KRES","Zürich, Kreuzstrasse","2012-10-01 03:42:00 PM","0.35","8.549910555555556","47.36291444444444"
"305","2","2104","OPER","Zürich, Opernhaus","2012-10-01 03:43:12 PM","0.57","8.547371666666667","47.36560138888889"
"305","2","1565","BELL","Zürich, Bellevue","2012-10-01 03:45:18 PM","0.78","8.544831666666667","47.36696611111111"
"305","2","2590","BURK","Zürich, Bürkliplatz","2012-10-01 03:47:24 PM","2.05","8.540955","47.366463333333336"
"305","2","2228","BOES","Zürich, Börsenstrasse","2012-10-01 03:49:00 PM","1.8","8.539842777777778","47.36837194444445"
"305","2","1528","PARA","Zürich, Paradeplatz","2012-10-01 03:50:00 PM","2.2","8.538715","47.369552222222225"
"305","2","2657","SIHS","Zürich, Sihlstrasse","2012-10-01 03:52:00 PM","2.27","8.534576944444444","47.372425"
"305","2","1502","STAU","Zürich, Stauffacher","2012-10-01 03:54:00 PM","1.92","8.529235","47.37343805555555"
"305","2","1306","BEZI","Zürich, Bezirksgebäude","2012-10-01 03:56:24 PM","1.6","8.525395555555555","47.37412166666667"
"305","2","1906","KALK","Zürich, Kalkbreite","2012-10-01 03:57:42 PM","1.43","8.520745555555555","47.37466027777778"
"305","2","2248","LOCH","Zürich, Lochergut","2012-10-01 03:59:06 PM","1.33","8.517121111111111","47.3755125"
"305","2","2250","ZYPR","Zürich, Zypressenstrasse","2012-10-01 04:00:18 PM","1.17","8.513573055555556","47.37685888888889"
"305","2","1535","ALBP","Zürich, Albisriederplatz","2012-10-01 04:01:42 PM","1.02","8.510094444444444","47.37838444444444"
"305","2","2245","LETG","Zürich, Letzigrund","2012-10-01 04:03:30 PM","1.03","8.503504722222223","47.38129694444444"
"305","2","2253","FREI","Zürich, Freihofstrasse","2012-10-01 04:04:42 PM","1.0","8.499385555555556","47.38326861111111"
"305","2","2244","KAPP","Zürich, Kappeli","2012-10-01 04:05:54 PM","1.1","8.494669444444444","47.38520972222222"
"305","2","2770","GRIM","Zürich, Grimselstrasse","2012-10-01 04:07:24 PM","1.17","8.489712777777777","47.387045"
"305","2","2535","LIND","Zürich, Lindenplatz","2012-10-01 04:08:36 PM","1.23","8.485795277777777","47.38788111111111"
"305","2","2818","BACH","Zürich, Bachmattstrasse","2012-10-01 04:09:42 PM","1.45","8.482602222222223","47.389178333333334"
"305","2","1310","FARB","Zürich, Farbhof","2012-10-01 04:10:54 PM","2.07","8.47908111111111","47.39064944444444"
"305","2","1310","FARB","Zürich, Farbhof","2012-10-01 04:19:30 PM","0.05","8.47908111111111","47.39064944444444"
"305","2","2818","BACH","Zürich, Bachmattstrasse","2012-10-01 04:20:24 PM","-0.15","8.482995833333334","47.38898583333334"
"305","2","2535","LIND","Zürich, Lindenplatz","2012-10-01 04:21:18 PM","-0.12","8.486349722222222","47.38777722222222"
"305","2","2770","GRIM","Zürich, Grimselstrasse","2012-10-01 04:22:36 PM","-0.25","8.490318888888888","47.386895555555554"
"305","2","2244","KAPP","Zürich, Kappeli","2012-10-01 04:24:12 PM","-0.2","8.495116944444444","47.385061944444445"
"305","2","2253","FREI","Zürich, Freihofstrasse","2012-10-01 04:25:24 PM","0.0","8.499870833333333","47.38303027777778"
"305","2","2245","LETG","Zürich, Letzigrund","2012-10-01 04:26:36 PM","0.2","8.50382","47.38115888888889"
"305","2","1535","ALBP","Zürich, Albisriederplatz","2012-10-01 04:28:06 PM","0.47","8.51051388888889","47.37817361111111"
"305","2","2250","ZYPR","Zürich, Zypressenstrasse","2012-10-01 04:29:24 PM","0.42","8.513966111111111","47.3766575"
"305","2","2248","LOCH","Zürich, Lochergut","2012-10-01 04:30:36 PM","0.22","8.517727777777777","47.375344444444444"
"305","2","1906","KALK","Zürich, Kalkbreite","2012-10-01 04:32:06 PM","0.12","8.5212725","47.37452944444444"
"305","2","1306","BEZI","Zürich, Bezirksgebäude","2012-10-01 04:33:24 PM","0.27","8.525868611111111","47.37394638888889"
"305","2","1502","STAU","Zürich, Stauffacher","2012-10-01 04:35:18 PM","0.15","8.530297222222222","47.37358972222222"
"305","2","2657","SIHS","Zürich, Sihlstrasse","2012-10-01 04:38:00 PM","0.12","8.534823333333334","47.372170833333335"
"305","2","1528","PARA","Zürich, Paradeplatz","2012-10-01 04:39:42 PM","0.92","8.53917888888889","47.369574722222225"
"305","2","2228","BOES","Zürich, Börsenstrasse","2012-10-01 04:41:24 PM","0.37","8.539835833333333","47.36803916666667"
"305","2","2590","BURK","Zürich, Bürkliplatz","2012-10-01 04:43:06 PM","-0.02","8.541765833333333","47.36660861111111"
"305","2","1565","BELL","Zürich, Bellevue","2012-10-01 04:45:12 PM","0.15","8.545332777777778","47.36687138888889"
"305","2","2104","OPER","Zürich, Opernhaus","2012-10-01 04:47:00 PM","0.37","8.547723055555556","47.36531027777778"
"305","2","2612","KRES","Zürich, Kreuzstrasse","2012-10-01 04:48:12 PM","0.28","8.5496","47.36325027777778"
"305","2","2689","FELD","Zürich, Feldeggstrasse","2012-10-01 04:49:30 PM","0.45","8.552069722222223","47.36042888888889"
"305","2","2615","HOES","Zürich, Höschgasse","2012-10-01 04:50:42 PM","0.32","8.554345277777777","47.35782527777778"
"305","2","2680","FROE","Zürich, Fröhlichstrasse","2012-10-01 04:52:00 PM","0.33","8.557001111111111","47.355065"
"305","2","2651","WILD","Zürich, Wildbachstrasse","2012-10-01 04:53:00 PM","0.18","8.5588925","47.35310388888889"
"305","2","2788","BTIE","Zürich, Bahnhof Tiefenbrunnen","2012-10-01 04:54:06 PM","0.48","8.561023055555555","47.35057333333334"
"305","2","2788","BTIE","Zürich, Bahnhof Tiefenbrunnen","2012-10-01 04:58:00 PM","0.13","8.561023055555555","47.35057333333334"
"305","2","2651","WILD","Zürich, Wildbachstrasse","2012-10-01 04:59:00 PM","0.05","8.558699444444445","47.35337555555556"
"305","2","2680","FROE","Zürich, Fröhlichstrasse","2012-10-01 05:00:06 PM","-0.1","8.556808888888888","47.35537277777778"
"305","2","2615","HOES","Zürich, Höschgasse","2012-10-01 05:01:18 PM","0.77","8.554178055555555","47.35806083333333"
"305","2","2689","FELD","Zürich, Feldeggstrasse","2012-10-01 05:02:24 PM","0.68","8.552318333333334","47.36029166666667"
"305","2","2612","KRES","Zürich, Kreuzstrasse","2012-10-01 05:03:48 PM","0.4","8.549910555555556","47.36291444444444"
"305","2","2104","OPER","Zürich, Opernhaus","2012-10-01 05:05:00 PM","1.87","8.547371666666667","47.36560138888889"
"305","2","1565","BELL","Zürich, Bellevue","2012-10-01 05:07:18 PM","1.17","8.544831666666667","47.36696611111111"
"305","2","2590","BURK","Zürich, Bürkliplatz","2012-10-01 05:09:36 PM","1.02","8.540955","47.366463333333336"
"305","2","2228","BOES","Zürich, Börsenstrasse","2012-10-01 05:11:18 PM","0.63","8.539842777777778","47.36837194444445"
"305","2","1528","PARA","Zürich, Paradeplatz","2012-10-01 05:12:30 PM","1.08","8.538715","47.369552222222225"
"305","2","2657","SIHS","Zürich, Sihlstrasse","2012-10-01 05:14:24 PM","1.35","8.534576944444444","47.372425"
"305","2","1502","STAU","Zürich, Stauffacher","2012-10-01 05:16:30 PM","2.47","8.529235","47.37343805555555"
"305","2","1306","BEZI","Zürich, Bezirksgebäude","2012-10-01 05:18:54 PM","2.05","8.525395555555555","47.37412166666667"
"305","2","1906","KALK","Zürich, Kalkbreite","2012-10-01 05:20:18 PM","2.08","8.520745555555555","47.37466027777778"
"305","2","2248","LOCH","Zürich, Lochergut","2012-10-01 05:21:48 PM","2.12","8.517121111111111","47.3755125"
"305","2","2250","ZYPR","Zürich, Zypressenstrasse","2012-10-01 05:23:06 PM","2.2","8.513573055555556","47.37685888888889"
"305","2","1535","ALBP","Zürich, Albisriederplatz","2012-10-01 05:24:36 PM","2.1","8.510094444444444","47.37838444444444"
"305","2","2245","LETG","Zürich, Letzigrund","2012-10-01 05:26:36 PM","2.57","8.503504722222223","47.38129694444444"
"305","2","2253","FREI","Zürich, Freihofstrasse","2012-10-01 05:27:42 PM","2.78","8.499385555555556","47.38326861111111"
"305","2","2244","KAPP","Zürich, Kappeli","2012-10-01 05:29:00 PM","2.87","8.494669444444444","47.38520972222222"
"305","2","2770","GRIM","Zürich, Grimselstrasse","2012-10-01 05:30:36 PM","2.83","8.489712777777777","47.387045"
"305","2","2535","LIND","Zürich, Lindenplatz","2012-10-01 05:31:48 PM","2.8","8.485795277777777","47.38788111111111"
"305","2","2818","BACH","Zürich, Bachmattstrasse","2012-10-01 05:33:06 PM","2.8","8.482602222222223","47.389178333333334"
"305","2","1310","FARB","Zürich, Farbhof","2012-10-01 05:34:18 PM","3.0","8.47908111111111","47.39064944444444"
"305","2","1310","FARB","Zürich, Farbhof","2012-10-01 05:42:00 PM","0.28","8.47908111111111","47.39064944444444"
"305","2","2818","BACH","Zürich, Bachmattstrasse","2012-10-01 05:42:54 PM","0.05","8.482995833333334","47.38898583333334"
"305","2","2535","LIND","Zürich, Lindenplatz","2012-10-01 05:43:48 PM","0.23","8.486349722222222","47.38777722222222"
"305","2","2770","GRIM","Zürich, Grimselstrasse","2012-10-01 05:45:06 PM","0.12","8.490318888888888","47.386895555555554"
"305","2","2244","KAPP","Zürich, Kappeli","2012-10-01 05:46:42 PM","0.08","8.495116944444444","47.385061944444445"
"305","2","2253","FREI","Zürich, Freihofstrasse","2012-10-01 05:47:54 PM","0.63","8.499870833333333","47.38303027777778"
"305","2","2245","LETG","Zürich, Letzigrund","2012-10-01 05:49:06 PM","0.78","8.50382","47.38115888888889"
"305","2","1535","ALBP","Zürich, Albisriederplatz","2012-10-01 05:50:36 PM","0.85","8.51051388888889","47.37817361111111"
"305","2","2250","ZYPR","Zürich, Zypressenstrasse","2012-10-01 05:51:54 PM","1.08","8.513966111111111","47.3766575"
"305","2","2248","LOCH","Zürich, Lochergut","2012-10-01 05:53:06 PM","0.87","8.517727777777777","47.375344444444444"
"305","2","1906","KALK","Zürich, Kalkbreite","2012-10-01 05:54:36 PM","1.03","8.5212725","47.37452944444444"
"305","2","1306","BEZI","Zürich, Bezirksgebäude","2012-10-01 05:55:54 PM","1.23","8.525868611111111","47.37394638888889"
"305","2","1502","STAU","Zürich, Stauffacher","2012-10-01 05:57:48 PM","0.97","8.530297222222222","47.37358972222222"
"305","2","2657","SIHS","Zürich, Sihlstrasse","2012-10-01 06:00:30 PM","0.38","8.534823333333334","47.372170833333335"
"305","2","1528","PARA","Zürich, Paradeplatz","2012-10-01 06:02:12 PM","1.02","8.53917888888889","47.369574722222225"
"305","2","2228","BOES","Zürich, Börsenstrasse","2012-10-01 06:03:54 PM","0.77","8.539835833333333","47.36803916666667"
"305","2","2590","BURK","Zürich, Bürkliplatz","2012-10-01 06:05:36 PM","0.7","8.541765833333333","47.36660861111111"
"305","2","1565","BELL","Zürich, Bellevue","2012-10-01 06:07:42 PM","0.17","8.545332777777778","47.36687138888889"
"305","2","2104","OPER","Zürich, Opernhaus","2012-10-01 06:09:30 PM","0.37","8.547723055555556","47.36531027777778"
"305","2","2612","KRES","Zürich, Kreuzstrasse","2012-10-01 06:10:42 PM","0.35","8.5496","47.36325027777778"
"305","2","2689","FELD","Zürich, Feldeggstrasse","2012-10-01 06:12:00 PM","0.42","8.552069722222223","47.36042888888889"
"305","2","2615","HOES","Zürich, Höschgasse","2012-10-01 06:13:12 PM","0.28","8.554345277777777","47.35782527777778"
"305","2","2680","FROE","Zürich, Fröhlichstrasse","2012-10-01 06:14:30 PM","0.38","8.557001111111111","47.355065"
"305","2","2651","WILD","Zürich, Wildbachstrasse","2012-10-01 06:15:30 PM","0.27","8.5588925","47.35310388888889"
"305","2","2788","BTIE","Zürich, Bahnhof Tiefenbrunnen","2012-10-01 06:16:36 PM","0.58","8.561023055555555","47.35057333333334"
"305","2","2788","BTIE","Zürich, Bahnhof Tiefenbrunnen","2012-10-01 06:20:30 PM","0.08","8.561023055555555","47.35057333333334"
"305","2","2651","WILD","Zürich, Wildbachstrasse","2012-10-01 06:21:30 PM","-0.05","8.558699444444445","47.35337555555556"
"305","2","2680","FROE","Zürich, Fröhlichstrasse","2012-10-01 06:22:36 PM","-0.07","8.556808888888888","47.35537277777778"
"305","2","2615","HOES","Zürich, Höschgasse","2012-10-01 06:23:48 PM","0.22","8.554178055555555","47.35806083333333"
"305","2","2689","FELD","Zürich, Feldeggstrasse","2012-10-01 06:24:54 PM","0.13","8.552318333333334","47.36029166666667"
"305","2","2612","KRES","Zürich, Kreuzstrasse","2012-10-01 06:26:18 PM","-0.08","8.549910555555556","47.36291444444444"
"305","2","2104","OPER","Zürich, Opernhaus","2012-10-01 06:27:30 PM","0.3","8.547371666666667","47.36560138888889"
"305","2","1565","BELL","Zürich, Bellevue","2012-10-01 06:29:48 PM","0.48","8.544831666666667","47.36696611111111"
"305","2","2590","BURK","Zürich, Bürkliplatz","2012-10-01 06:32:06 PM","-0.22","8.540955","47.366463333333336"
"305","2","2228","BOES","Zürich, Börsenstrasse","2012-10-01 06:33:48 PM","-0.38","8.539842777777778","47.36837194444445"
"305","2","1528","PARA","Zürich, Paradeplatz","2012-10-01 06:35:00 PM","-0.28","8.538715","47.369552222222225"
"305","2","2657","SIHS","Zürich, Sihlstrasse","2012-10-01 06:36:54 PM","-0.03","8.534576944444444","47.372425"
"305","2","1502","STAU","Zürich, Stauffacher","2012-10-01 06:39:00 PM","0.12","8.529235","47.37343805555555"
"305","2","1306","BEZI","Zürich, Bezirksgebäude","2012-10-01 06:41:24 PM","0.73","8.525395555555555","47.37412166666667"
"305","2","1906","KALK","Zürich, Kalkbreite","2012-10-01 06:42:48 PM","0.68","8.520745555555555","47.37466027777778"
"305","2","2248","LOCH","Zürich, Lochergut","2012-10-01 06:44:18 PM","1.28","8.517121111111111","47.3755125"
"305","2","2250","ZYPR","Zürich, Zypressenstrasse","2012-10-01 06:45:36 PM","1.3","8.513573055555556","47.37685888888889"
"305","2","1535","ALBP","Zürich, Albisriederplatz","2012-10-01 06:47:06 PM","1.3","8.510094444444444","47.37838444444444"
"305","2","2245","LETG","Zürich, Letzigrund","2012-10-01 06:49:06 PM","1.92","8.503504722222223","47.38129694444444"
"305","2","2253","FREI","Zürich, Freihofstrasse","2012-10-01 06:50:12 PM","2.42","8.499385555555556","47.38326861111111"
"305","2","2244","KAPP","Zürich, Kappeli","2012-10-01 06:51:30 PM","2.7","8.494669444444444","47.38520972222222"
"305","2","2770","GRIM","Zürich, Grimselstrasse","2012-10-01 06:53:06 PM","2.6","8.489712777777777","47.387045"
"305","2","2535","LIND","Zürich, Lindenplatz","2012-10-01 06:54:18 PM","3.03","8.485795277777777","47.38788111111111"
"305","2","2818","BACH","Zürich, Bachmattstrasse","2012-10-01 06:55:36 PM","2.68","8.482602222222223","47.389178333333334"
"305","2","1310","FARB","Zürich, Farbhof","2012-10-01 06:56:48 PM","2.75","8.47908111111111","47.39064944444444"
"305","2","1310","FARB","Zürich, Farbhof","2012-10-01 07:05:30 PM","0.82","8.47908111111111","47.39064944444444"
"305","2","2818","BACH","Zürich, Bachmattstrasse","2012-10-01 07:06:24 PM","0.55","8.482995833333334","47.38898583333334"
"305","2","2535","LIND","Zürich, Lindenplatz","2012-10-01 07:07:12 PM","0.58","8.486349722222222","47.38777722222222"
"305","2","2770","GRIM","Zürich, Grimselstrasse","2012-10-01 07:08:24 PM","0.52","8.490318888888888","47.386895555555554"
"305","2","2244","KAPP","Zürich, Kappeli","2012-10-01 07:10:00 PM","0.18","8.495116944444444","47.385061944444445"
"305","2","2253","FREI","Zürich, Freihofstrasse","2012-10-01 07:11:12 PM","0.25","8.499870833333333","47.38303027777778"
"305","2","2245","LETG","Zürich, Letzigrund","2012-10-01 07:12:24 PM","0.25","8.50382","47.38115888888889"
"305","2","1535","ALBP","Zürich, Albisriederplatz","2012-10-01 07:13:48 PM","0.38","8.51051388888889","47.37817361111111"
"305","2","2250","ZYPR","Zürich, Zypressenstrasse","2012-10-01 07:15:06 PM","0.27","8.513966111111111","47.3766575"
"305","2","2248","LOCH","Zürich, Lochergut","2012-10-01 07:16:12 PM","0.12","8.517727777777777","47.375344444444444"
"305","2","1906","KALK","Zürich, Kalkbreite","2012-10-01 07:17:42 PM","-0.08","8.5212725","47.37452944444444"
"305","2","1306","BEZI","Zürich, Bezirksgebäude","2012-10-01 07:19:00 PM","0.45","8.525868611111111","47.37394638888889"
"305","2","1502","STAU","Zürich, Stauffacher","2012-10-01 07:20:42 PM","0.18","8.530297222222222","47.37358972222222"
"305","2","2657","SIHS","Zürich, Sihlstrasse","2012-10-01 07:23:30 PM","0.2","8.534823333333334","47.372170833333335"
"305","2","1528","PARA","Zürich, Paradeplatz","2012-10-01 07:25:12 PM","0.77","8.53917888888889","47.369574722222225"
"305","2","2228","BOES","Zürich, Börsenstrasse","2012-10-01 07:26:54 PM","0.07","8.539835833333333","47.36803916666667"
"305","2","2590","BURK","Zürich, Bürkliplatz","2012-10-01 07:28:24 PM","0.32","8.541765833333333","47.36660861111111"
"305","2","1565","BELL","Zürich, Bellevue","2012-10-01 07:30:18 PM","-0.03","8.545332777777778","47.36687138888889"
"305","2","2104","OPER","Zürich, Opernhaus","2012-10-01 07:32:06 PM","0.1","8.547723055555556","47.36531027777778"
"305","2","2612","KRES","Zürich, Kreuzstrasse","2012-10-01 07:33:12 PM","-0.03","8.5496","47.36325027777778"
"305","2","2689","FELD","Zürich, Feldeggstrasse","2012-10-01 07:34:24 PM","-0.1","8.552069722222223","47.36042888888889"
"305","2","2615","HOES","Zürich, Höschgasse","2012-10-01 07:35:36 PM","-0.25","8.554345277777777","47.35782527777778"
"305","2","2680","FROE","Zürich, Fröhlichstrasse","2012-10-01 07:36:54 PM","-0.33","8.557001111111111","47.355065"
"305","2","2651","WILD","Zürich, Wildbachstrasse","2012-10-01 07:37:54 PM","-0.53","8.5588925","47.35310388888889"
"305","2","2788","BTIE","Zürich, Bahnhof Tiefenbrunnen","2012-10-01 07:39:00 PM","-0.27","8.561023055555555","47.35057333333334"
"305","2","2788","BTIE","Zürich, Bahnhof Tiefenbrunnen","2012-10-01 07:44:00 PM","1.87","8.561023055555555","47.35057333333334"
"305","2","2651","WILD","Zürich, Wildbachstrasse","2012-10-01 07:45:00 PM","1.8","8.558699444444445","47.35337555555556"
"305","2","2680","FROE","Zürich, Fröhlichstrasse","2012-10-01 07:46:00 PM","1.62","8.556808888888888","47.35537277777778"
"305","2","2615","HOES","Zürich, Höschgasse","2012-10-01 07:47:06 PM","1.68","8.554178055555555","47.35806083333333"
"305","2","2689","FELD","Zürich, Feldeggstrasse","2012-10-01 07:48:12 PM","1.43","8.552318333333334","47.36029166666667"
"305","2","2612","KRES","Zürich, Kreuzstrasse","2012-10-01 07:49:30 PM","1.28","8.549910555555556","47.36291444444444"
"305","2","2104","OPER","Zürich, Opernhaus","2012-10-01 07:50:42 PM","1.42","8.547371666666667","47.36560138888889"
"305","2","1565","BELL","Zürich, Bellevue","2012-10-01 07:52:48 PM","0.7","8.544831666666667","47.36696611111111"
"305","2","2590","BURK","Zürich, Bürkliplatz","2012-10-01 07:54:54 PM","0.82","8.540955","47.366463333333336"
"305","2","2228","BOES","Zürich, Börsenstrasse","2012-10-01 07:56:30 PM","0.33","8.539842777777778","47.36837194444445"
"305","2","1528","PARA","Zürich, Paradeplatz","2012-10-01 07:57:30 PM","0.42","8.538715","47.369552222222225"
"305","2","2657","SIHS","Zürich, Sihlstrasse","2012-10-01 07:59:30 PM","0.2","8.534576944444444","47.372425"
"305","2","1502","STAU","Zürich, Stauffacher","2012-10-01 08:01:30 PM","0.02","8.529235","47.37343805555555"
"305","2","1306","BEZI","Zürich, Bezirksgebäude","2012-10-01 08:03:54 PM","1.7","8.525395555555555","47.37412166666667"
"305","2","1906","KALK","Zürich, Kalkbreite","2012-10-01 08:05:12 PM","1.5","8.520745555555555","47.37466027777778"
"305","2","2248","LOCH","Zürich, Lochergut","2012-10-01 08:06:36 PM","1.3","8.517121111111111","47.3755125"
"305","2","2250","ZYPR","Zürich, Zypressenstrasse","2012-10-01 08:07:48 PM","0.98","8.513573055555556","47.37685888888889"
"305","2","1535","ALBP","Zürich, Albisriederplatz","2012-10-01 08:09:12 PM","0.72","8.510094444444444","47.37838444444444"
"305","2","2245","LETG","Zürich, Letzigrund","2012-10-01 08:11:00 PM","0.5","8.503504722222223","47.38129694444444"
"305","2","2253","FREI","Zürich, Freihofstrasse","2012-10-01 08:12:12 PM","0.28","8.499385555555556","47.38326861111111"
"305","2","2244","KAPP","Zürich, Kappeli","2012-10-01 08:13:24 PM","0.17","8.494669444444444","47.38520972222222"
"305","2","2770","GRIM","Zürich, Grimselstrasse","2012-10-01 08:14:54 PM","-0.02","8.489712777777777","47.387045"
"305","2","2535","LIND","Zürich, Lindenplatz","2012-10-01 08:16:06 PM","-0.28","8.485795277777777","47.38788111111111"
"305","2","2818","BACH","Zürich, Bachmattstrasse","2012-10-01 08:17:12 PM","-0.5","8.482602222222223","47.389178333333334"
"305","2","1310","FARB","Zürich, Farbhof","2012-10-01 08:18:24 PM","-0.4","8.47908111111111","47.39064944444444"
"305","2","1310","FARB","Zürich, Farbhof","2012-10-01 08:22:00 PM","1.73","8.47908111111111","47.39064944444444"
"305","2","2818","BACH","Zürich, Bachmattstrasse","2012-10-01 08:22:48 PM","1.48","8.482995833333334","47.38898583333334"
"305","2","2535","LIND","Zürich, Lindenplatz","2012-10-01 08:23:30 PM","1.65","8.486349722222222","47.38777722222222"
"305","2","2770","GRIM","Zürich, Grimselstrasse","2012-10-01 08:24:42 PM","1.43","8.490318888888888","47.386895555555554"
"305","2","2244","KAPP","Zürich, Kappeli","2012-10-01 08:26:12 PM","1.15","8.495116944444444","47.385061944444445"
"305","2","2253","FREI","Zürich, Freihofstrasse","2012-10-01 08:27:18 PM","1.2","8.499870833333333","47.38303027777778"
"305","2","2245","LETG","Zürich, Letzigrund","2012-10-01 08:28:24 PM","1.2","8.50382","47.38115888888889"
"305","2","1535","ALBP","Zürich, Albisriederplatz","2012-10-01 08:29:42 PM","1.38","8.51051388888889","47.37817361111111"
"305","2","2250","ZYPR","Zürich, Zypressenstrasse","2012-10-01 08:30:54 PM","1.27","8.513966111111111","47.3766575"
"305","2","2248","LOCH","Zürich, Lochergut","2012-10-01 08:32:00 PM","1.03","8.517727777777777","47.375344444444444"
"305","2","1906","KALK","Zürich, Kalkbreite","2012-10-01 08:33:30 PM","0.93","8.5212725","47.37452944444444"
"305","2","1306","BEZI","Zürich, Bezirksgebäude","2012-10-01 08:34:36 PM","1.13","8.525868611111111","47.37394638888889"
"305","2","1502","STAU","Zürich, Stauffacher","2012-10-01 08:36:06 PM","0.88","8.530297222222222","47.37358972222222"
"305","2","2657","SIHS","Zürich, Sihlstrasse","2012-10-01 08:38:42 PM","0.77","8.534823333333334","47.372170833333335"
"305","2","1528","PARA","Zürich, Paradeplatz","2012-10-01 08:40:18 PM","1.07","8.53917888888889","47.369574722222225"
"305","2","2228","BOES","Zürich, Börsenstrasse","2012-10-01 08:41:42 PM","0.8","8.539835833333333","47.36803916666667"
"305","2","2590","BURK","Zürich, Bürkliplatz","2012-10-01 08:43:06 PM","1.33","8.541765833333333","47.36660861111111"
"305","2","1565","BELL","Zürich, Bellevue","2012-10-01 08:44:48 PM","1.27","8.545332777777778","47.36687138888889"
"305","2","2104","OPER","Zürich, Opernhaus","2012-10-01 08:46:30 PM","0.7","8.547723055555556","47.36531027777778"
"305","2","2612","KRES","Zürich, Kreuzstrasse","2012-10-01 08:47:30 PM","0.62","8.5496","47.36325027777778"
"305","2","2689","FELD","Zürich, Feldeggstrasse","2012-10-01 08:48:48 PM","0.55","8.552069722222223","47.36042888888889"
"305","2","2615","HOES","Zürich, Höschgasse","2012-10-01 08:49:54 PM","0.32","8.554345277777777","47.35782527777778"
"305","2","2680","FROE","Zürich, Fröhlichstrasse","2012-10-01 08:51:00 PM","0.53","8.557001111111111","47.355065"
"305","2","2651","WILD","Zürich, Wildbachstrasse","2012-10-01 08:52:00 PM","0.32","8.5588925","47.35310388888889"
"305","2","2788","BTIE","Zürich, Bahnhof Tiefenbrunnen","2012-10-01 08:53:06 PM","0.53","8.561023055555555","47.35057333333334"
"305","2","2788","BTIE","Zürich, Bahnhof Tiefenbrunnen","2012-10-01 08:55:00 PM","0.78","8.561023055555555","47.35057333333334"
"305","2","2651","WILD","Zürich, Wildbachstrasse","2012-10-01 08:55:54 PM","0.77","8.558699444444445","47.35337555555556"
"305","2","2680","FROE","Zürich, Fröhlichstrasse","2012-10-01 08:56:54 PM","0.58","8.556808888888888","47.35537277777778"
"305","2","2615","HOES","Zürich, Höschgasse","2012-10-01 08:58:00 PM","3.93","8.554178055555555","47.35806083333333"
"305","2","2689","FELD","Zürich, Feldeggstrasse","2012-10-01 08:59:00 PM","4.05","8.552318333333334","47.36029166666667"
"305","2","2612","KRES","Zürich, Kreuzstrasse","2012-10-01 09:00:18 PM","3.73","8.549910555555556","47.36291444444444"
"305","2","2104","OPER","Zürich, Opernhaus","2012-10-01 09:01:24 PM","3.78","8.547371666666667","47.36560138888889"
"305","2","1565","BELL","Zürich, Bellevue","2012-10-01 09:03:18 PM","3.67","8.544831666666667","47.36696611111111"
"305","2","2590","BURK","Zürich, Bürkliplatz","2012-10-01 09:05:12 PM","4.05","8.540955","47.366463333333336"
"305","2","2228","BOES","Zürich, Börsenstrasse","2012-10-01 09:06:42 PM","4.28","8.539842777777778","47.36837194444445"
"305","2","1528","PARA","Zürich, Paradeplatz","2012-10-01 09:07:42 PM","4.4","8.538715","47.369552222222225"
"305","2","2657","SIHS","Zürich, Sihlstrasse","2012-10-01 09:09:18 PM","4.28","8.534576944444444","47.372425"
"305","2","1502","STAU","Zürich, Stauffacher","2012-10-01 09:11:00 PM","4.13","8.529235","47.37343805555555"
"305","2","1306","BEZI","Zürich, Bezirksgebäude","2012-10-01 09:13:24 PM","3.0","8.525395555555555","47.37412166666667"
"305","2","1906","KALK","Zürich, Kalkbreite","2012-10-01 09:14:36 PM","2.98","8.520745555555555","47.37466027777778"
"305","2","2248","LOCH","Zürich, Lochergut","2012-10-01 09:15:48 PM","3.27","8.517121111111111","47.3755125"
"305","2","2250","ZYPR","Zürich, Zypressenstrasse","2012-10-01 09:16:54 PM","3.07","8.513573055555556","47.37685888888889"
"305","2","1535","ALBP","Zürich, Albisriederplatz","2012-10-01 09:18:12 PM","2.78","8.510094444444444","47.37838444444444"
"305","2","2245","LETG","Zürich, Letzigrund","2012-10-01 09:19:54 PM","2.5","8.503504722222223","47.38129694444444"
"305","2","2253","FREI","Zürich, Freihofstrasse","2012-10-01 09:21:00 PM","2.32","8.499385555555556","47.38326861111111"
"305","2","2244","KAPP","Zürich, Kappeli","2012-10-01 09:22:06 PM","2.28","8.494669444444444","47.38520972222222"
"305","2","2770","GRIM","Zürich, Grimselstrasse","2012-10-01 09:23:30 PM","2.17","8.489712777777777","47.387045"
"305","2","2535","LIND","Zürich, Lindenplatz","2012-10-01 09:24:42 PM","1.82","8.485795277777777","47.38788111111111"
"305","2","2818","BACH","Zürich, Bachmattstrasse","2012-10-01 09:25:36 PM","1.77","8.482602222222223","47.389178333333334"
"305","2","1310","FARB","Zürich, Farbhof","2012-10-01 09:26:42 PM","1.88","8.47908111111111","47.39064944444444"
"305","2","1310","FARB","Zürich, Farbhof","2012-10-01 09:32:00 PM","0.92","8.47908111111111","47.39064944444444"
"305","2","2818","BACH","Zürich, Bachmattstrasse","2012-10-01 09:32:48 PM","0.72","8.482995833333334","47.38898583333334"
"305","2","2535","LIND","Zürich, Lindenplatz","2012-10-01 09:33:30 PM","0.77","8.486349722222222","47.38777722222222"
"305","2","2770","GRIM","Zürich, Grimselstrasse","2012-10-01 09:34:42 PM","0.42","8.490318888888888","47.386895555555554"
"305","2","2244","KAPP","Zürich, Kappeli","2012-10-01 09:36:12 PM","0.1","8.495116944444444","47.385061944444445"
"305","2","2253","FREI","Zürich, Freihofstrasse","2012-10-01 09:37:18 PM","0.07","8.499870833333333","47.38303027777778"
"305","2","2245","LETG","Zürich, Letzigrund","2012-10-01 09:38:24 PM","0.17","8.50382","47.38115888888889"
"305","2","1535","ALBP","Zürich, Albisriederplatz","2012-10-01 09:39:42 PM","0.73","8.51051388888889","47.37817361111111"
"305","2","2250","ZYPR","Zürich, Zypressenstrasse","2012-10-01 09:40:54 PM","0.6","8.513966111111111","47.3766575"
"305","2","2248","LOCH","Zürich, Lochergut","2012-10-01 09:42:00 PM","0.43","8.517727777777777","47.375344444444444"
"305","2","1906","KALK","Zürich, Kalkbreite","2012-10-01 09:43:30 PM","0.15","8.5212725","47.37452944444444"
"305","2","1306","BEZI","Zürich, Bezirksgebäude","2012-10-01 09:44:36 PM","0.32","8.525868611111111","47.37394638888889"
"305","2","1502","STAU","Zürich, Stauffacher","2012-10-01 09:46:06 PM","0.27","8.530297222222222","47.37358972222222"
"305","2","2657","SIHS","Zürich, Sihlstrasse","2012-10-01 09:48:42 PM","0.28","8.534823333333334","47.372170833333335"
"305","2","1528","PARA","Zürich, Paradeplatz","2012-10-01 09:50:18 PM","0.67","8.53917888888889","47.369574722222225"
"305","2","2228","BOES","Zürich, Börsenstrasse","2012-10-01 09:51:42 PM","0.32","8.539835833333333","47.36803916666667"
"305","2","2590","BURK","Zürich, Bürkliplatz","2012-10-01 09:53:06 PM","0.32","8.541765833333333","47.36660861111111"
"305","2","1565","BELL","Zürich, Bellevue","2012-10-01 09:54:48 PM","0.23","8.545332777777778","47.36687138888889"
"305","2","2104","OPER","Zürich, Opernhaus","2012-10-01 09:56:30 PM","-0.35","8.547723055555556","47.36531027777778"
"305","2","2612","KRES","Zürich, Kreuzstrasse","2012-10-01 09:57:30 PM","-0.1","8.5496","47.36325027777778"
"305","2","2689","FELD","Zürich, Feldeggstrasse","2012-10-01 09:58:48 PM","-0.32","8.552069722222223","47.36042888888889"
"305","2","2615","HOES","Zürich, Höschgasse","2012-10-01 09:59:54 PM","-0.53","8.554345277777777","47.35782527777778"
"305","2","2680","FROE","Zürich, Fröhlichstrasse","2012-10-01 10:01:00 PM","-0.7","8.557001111111111","47.355065"
"305","2","2651","WILD","Zürich, Wildbachstrasse","2012-10-01 10:02:00 PM","-0.9","8.5588925","47.35310388888889"
"305","2","2788","BTIE","Zürich, Bahnhof Tiefenbrunnen","2012-10-01 10:03:06 PM","-0.73","8.561023055555555","47.35057333333334"
"305","2","2788","BTIE","Zürich, Bahnhof Tiefenbrunnen","2012-10-01 10:05:00 PM","0.95","8.561023055555555","47.35057333333334"
"305","2","2651","WILD","Zürich, Wildbachstrasse","2012-10-01 10:05:54 PM","1.18","8.558699444444445","47.35337555555556"
"305","2","2680","FROE","Zürich, Fröhlichstrasse","2012-10-01 10:06:54 PM","1.0","8.556808888888888","47.35537277777778"
"305","2","2615","HOES","Zürich, Höschgasse","2012-10-01 10:08:00 PM","0.93","8.554178055555555","47.35806083333333"
"305","2","2689","FELD","Zürich, Feldeggstrasse","2012-10-01 10:09:00 PM","0.78","8.552318333333334","47.36029166666667"
"305","2","2612","KRES","Zürich, Kreuzstrasse","2012-10-01 10:10:18 PM","0.38","8.549910555555556","47.36291444444444"
"305","2","2104","OPER","Zürich, Opernhaus","2012-10-01 10:11:24 PM","0.4","8.547371666666667","47.36560138888889"
"305","2","1565","BELL","Zürich, Bellevue","2012-10-01 10:13:18 PM","-0.25","8.544831666666667","47.36696611111111"
"305","2","2590","BURK","Zürich, Bürkliplatz","2012-10-01 10:15:12 PM","-0.27","8.540955","47.366463333333336"
"305","2","2228","BOES","Zürich, Börsenstrasse","2012-10-01 10:16:42 PM","-0.4","8.539842777777778","47.36837194444445"
"305","2","1528","PARA","Zürich, Paradeplatz","2012-10-01 10:17:42 PM","-0.32","8.538715","47.369552222222225"
"305","2","2657","SIHS","Zürich, Sihlstrasse","2012-10-01 10:19:18 PM","-0.18","8.534576944444444","47.372425"
"305","2","1502","STAU","Zürich, Stauffacher","2012-10-01 10:21:00 PM","0.05","8.529235","47.37343805555555"
"305","2","1306","BEZI","Zürich, Bezirksgebäude","2012-10-01 10:23:24 PM","-0.32","8.525395555555555","47.37412166666667"
"305","2","1906","KALK","Zürich, Kalkbreite","2012-10-01 10:24:36 PM","-0.33","8.520745555555555","47.37466027777778"
"305","2","2248","LOCH","Zürich, Lochergut","2012-10-01 10:25:48 PM","-0.05","8.517121111111111","47.3755125"
"305","2","2250","ZYPR","Zürich, Zypressenstrasse","2012-10-01 10:26:54 PM","-0.18","8.513573055555556","47.37685888888889"
"305","2","1535","ALBP","Zürich, Albisriederplatz","2012-10-01 10:28:12 PM","-0.3","8.510094444444444","47.37838444444444"
"305","2","2245","LETG","Zürich, Letzigrund","2012-10-01 10:29:54 PM","-0.17","8.503504722222223","47.38129694444444"
"305","2","2253","FREI","Zürich, Freihofstrasse","2012-10-01 10:31:00 PM","-0.38","8.499385555555556","47.38326861111111"
"305","2","2244","KAPP","Zürich, Kappeli","2012-10-01 10:32:06 PM","-0.42","8.494669444444444","47.38520972222222"
"305","2","2770","GRIM","Zürich, Grimselstrasse","2012-10-01 10:33:30 PM","-0.57","8.489712777777777","47.387045"
"305","2","2535","LIND","Zürich, Lindenplatz","2012-10-01 10:34:42 PM","-0.77","8.485795277777777","47.38788111111111"
"305","2","2818","BACH","Zürich, Bachmattstrasse","2012-10-01 10:35:36 PM","-0.15","8.482602222222223","47.389178333333334"
"305","2","1310","FARB","Zürich, Farbhof","2012-10-01 10:36:42 PM","1.05","8.47908111111111","47.39064944444444"
"305","2","1310","FARB","Zürich, Farbhof","2012-10-01 10:39:00 PM","0.23","8.47908111111111","47.39064944444444"
"305","2","2818","BACH","Zürich, Bachmattstrasse","2012-10-01 10:39:48 PM","0.05","8.482995833333334","47.38898583333334"
"305","2","2535","LIND","Zürich, Lindenplatz","2012-10-01 10:40:30 PM","0.03","8.486349722222222","47.38777722222222"
"305","2","2770","GRIM","Zürich, Grimselstrasse","2012-10-01 10:41:42 PM","0.0","8.490318888888888","47.386895555555554"
"305","2","2244","KAPP","Zürich, Kappeli","2012-10-01 10:43:12 PM","-0.13","8.495116944444444","47.385061944444445"
"305","2","2253","FREI","Zürich, Freihofstrasse","2012-10-01 10:44:18 PM","-0.17","8.499870833333333","47.38303027777778"
"305","2","2245","LETG","Zürich, Letzigrund","2012-10-01 10:45:24 PM","-0.45","8.50382","47.38115888888889"
"305","2","1535","ALBP","Zürich, Albisriederplatz","2012-10-01 10:46:42 PM","-0.3","8.51051388888889","47.37817361111111"
"305","2","2250","ZYPR","Zürich, Zypressenstrasse","2012-10-01 10:47:54 PM","-0.4","8.513966111111111","47.3766575"
"305","2","2248","LOCH","Zürich, Lochergut","2012-10-01 10:49:00 PM","-0.55","8.517727777777777","47.375344444444444"
"305","2","1906","KALK","Zürich, Kalkbreite","2012-10-01 10:50:30 PM","-0.28","8.52065638888889","47.374184166666666"
"305","2","1906","KALK","Zürich, Kalkbreite","2012-10-01 10:51:30 PM","0.07","8.52065638888889","47.374184166666666"
"305","2","2251","DEP4","Zürich, Depot 4 Elisabethenstr","2012-10-01 04:53:00 AM","0.07","8.521632222222221","47.37333861111111"
"305","2","1906","KALK","Zürich, Kalkbreite","2012-10-01 04:54:00 AM","0.38","8.520745555555555","47.37466027777778"
"305","2","2248","LOCH","Zürich, Lochergut","2012-10-01 04:54:42 AM","0.55","8.517121111111111","47.3755125"
"305","2","2250","ZYPR","Zürich, Zypressenstrasse","2012-10-01 04:55:48 AM","0.47","8.513573055555556","47.37685888888889"
"305","2","1535","ALBP","Zürich, Albisriederplatz","2012-10-01 04:57:06 AM","0.28","8.510094444444444","47.37838444444444"
"305","2","2245","LETG","Zürich, Letzigrund","2012-10-01 04:58:48 AM","0.2","8.503504722222223","47.38129694444444"
"305","2","2253","FREI","Zürich, Freihofstrasse","2012-10-01 04:59:54 AM","0.22","8.499385555555556","47.38326861111111"
"305","2","2244","KAPP","Zürich, Kappeli","2012-10-01 05:01:00 AM","0.62","8.494669444444444","47.38520972222222"
"305","2","2770","GRIM","Zürich, Grimselstrasse","2012-10-01 05:02:24 AM","0.7","8.489712777777777","47.387045"
"305","2","2535","LIND","Zürich, Lindenplatz","2012-10-01 05:03:36 AM","1.43","8.485795277777777","47.38788111111111"
"305","2","2818","BACH","Zürich, Bachmattstrasse","2012-10-01 05:04:30 AM","1.43","8.482602222222223","47.389178333333334"
"305","2","1310","FARB","Zürich, Farbhof","2012-10-01 05:05:36 AM","1.68","8.47908111111111","47.39064944444444"
"305","2","1310","FARB","Zürich, Farbhof","2012-10-01 05:07:00 AM","0.83","8.47908111111111","47.39064944444444"
"305","2","2818","BACH","Zürich, Bachmattstrasse","2012-10-01 05:07:48 AM","0.75","8.482995833333334","47.38898583333334"
"305","2","2535","LIND","Zürich, Lindenplatz","2012-10-01 05:08:30 AM","0.93","8.486349722222222","47.38777722222222"
"305","2","2770","GRIM","Zürich, Grimselstrasse","2012-10-01 05:09:42 AM","0.92","8.490318888888888","47.386895555555554"
"305","2","2244","KAPP","Zürich, Kappeli","2012-10-01 05:11:12 AM","0.77","8.495116944444444","47.385061944444445"
"305","2","2253","FREI","Zürich, Freihofstrasse","2012-10-01 05:12:18 AM","0.8","8.499870833333333","47.38303027777778"
"305","2","2245","LETG","Zürich, Letzigrund","2012-10-01 05:13:24 AM","0.7","8.50382","47.38115888888889"
"305","2","1535","ALBP","Zürich, Albisriederplatz","2012-10-01 05:14:42 AM","0.75","8.51051388888889","47.37817361111111"
"305","2","2250","ZYPR","Zürich, Zypressenstrasse","2012-10-01 05:15:54 AM","0.65","8.513966111111111","47.3766575"
"305","2","2248","LOCH","Zürich, Lochergut","2012-10-01 05:17:00 AM","0.45","8.517727777777777","47.375344444444444"
"305","2","1906","KALK","Zürich, Kalkbreite","2012-10-01 05:18:30 AM","0.37","8.5212725","47.37452944444444"
"305","2","1306","BEZI","Zürich, Bezirksgebäude","2012-10-01 05:19:36 AM","0.42","8.525868611111111","47.37394638888889"
"305","2","1502","STAU","Zürich, Stauffacher","2012-10-01 05:21:06 AM","0.38","8.530297222222222","47.37358972222222"
"305","2","2657","SIHS","Zürich, Sihlstrasse","2012-10-01 05:23:42 AM","0.33","8.534823333333334","47.372170833333335"
"305","2","1528","PARA","Zürich, Paradeplatz","2012-10-01 05:25:18 AM","0.3","8.53917888888889","47.369574722222225"
"305","2","2228","BOES","Zürich, Börsenstrasse","2012-10-01 05:26:42 AM","-0.07","8.539835833333333","47.36803916666667"
"305","2","2590","BURK","Zürich, Bürkliplatz","2012-10-01 05:28:06 AM","-0.18","8.541765833333333","47.36660861111111"
"305","2","1565","BELL","Zürich, Bellevue","2012-10-01 05:29:48 AM","-0.65","8.545332777777778","47.36687138888889"
"305","2","2104","OPER","Zürich, Opernhaus","2012-10-01 05:31:30 AM","-0.15","8.547723055555556","47.36531027777778"
"305","2","2612","KRES","Zürich, Kreuzstrasse","2012-10-01 05:32:30 AM","-0.05","8.5496","47.36325027777778"
"305","2","2689","FELD","Zürich, Feldeggstrasse","2012-10-01 05:33:48 AM","-0.15","8.552069722222223","47.36042888888889"
"305","2","2615","HOES","Zürich, Höschgasse","2012-10-01 05:34:54 AM","-0.28","8.554345277777777","47.35782527777778"
"305","2","2680","FROE","Zürich, Fröhlichstrasse","2012-10-01 05:36:00 AM","-0.18","8.557001111111111","47.355065"
"305","2","2651","WILD","Zürich, Wildbachstrasse","2012-10-01 05:37:00 AM","-0.2","8.5588925","47.35310388888889"
"305","2","2788","BTIE","Zürich, Bahnhof Tiefenbrunnen","2012-10-01 05:38:06 AM","-0.05","8.561023055555555","47.35057333333334"
"305","2","2788","BTIE","Zürich, Bahnhof Tiefenbrunnen","2012-10-01 05:47:00 AM","-0.25","8.561023055555555","47.35057333333334"
"305","2","2651","WILD","Zürich, Wildbachstrasse","2012-10-01 05:47:54 AM","-0.12","8.558699444444445","47.35337555555556"
"305","2","2680","FROE","Zürich, Fröhlichstrasse","2012-10-01 05:48:54 AM","-0.37","8.556808888888888","47.35537277777778"
"305","2","2615","HOES","Zürich, Höschgasse","2012-10-01 05:50:00 AM","-0.32","8.554178055555555","47.35806083333333"
"305","2","2689","FELD","Zürich, Feldeggstrasse","2012-10-01 05:51:00 AM","-0.38","8.552318333333334","47.36029166666667"
"305","2","2612","KRES","Zürich, Kreuzstrasse","2012-10-01 05:52:18 AM","-0.68","8.549910555555556","47.36291444444444"
"305","2","2104","OPER","Zürich, Opernhaus","2012-10-01 05:53:24 AM","-0.33","8.547371666666667","47.36560138888889"
"305","2","1565","BELL","Zürich, Bellevue","2012-10-01 05:55:18 AM","-0.87","8.544831666666667","47.36696611111111"
"305","2","2590","BURK","Zürich, Bürkliplatz","2012-10-01 05:57:12 AM","-0.82","8.540955","47.366463333333336"
"305","2","2228","BOES","Zürich, Börsenstrasse","2012-10-01 05:58:42 AM","-1.08","8.539842777777778","47.36837194444445"
"305","2","1528","PARA","Zürich, Paradeplatz","2012-10-01 05:59:42 AM","-0.92","8.538715","47.369552222222225"
"305","2","2657","SIHS","Zürich, Sihlstrasse","2012-10-01 06:01:18 AM","-0.12","8.534576944444444","47.372425"
"305","2","1502","STAU","Zürich, Stauffacher","2012-10-01 06:03:00 AM","0.18","8.529235","47.37343805555555"
"305","2","1306","BEZI","Zürich, Bezirksgebäude","2012-10-01 06:05:24 AM","-0.2","8.525395555555555","47.37412166666667"
"305","2","1906","KALK","Zürich, Kalkbreite","2012-10-01 06:06:36 AM","-0.2","8.520745555555555","47.37466027777778"
"305","2","2248","LOCH","Zürich, Lochergut","2012-10-01 06:07:48 AM","-0.07","8.517121111111111","47.3755125"
"305","2","2250","ZYPR","Zürich, Zypressenstrasse","2012-10-01 06:08:54 AM","-0.17","8.513573055555556","47.37685888888889"
"305","2","1535","ALBP","Zürich, Albisriederplatz","2012-10-01 06:10:12 AM","-0.25","8.510094444444444","47.37838444444444"
"305","2","2245","LETG","Zürich, Letzigrund","2012-10-01 06:11:54 AM","-0.35","8.503504722222223","47.38129694444444"
"305","2","2253","FREI","Zürich, Freihofstrasse","2012-10-01 06:13:00 AM","-0.43","8.499385555555556","47.38326861111111"
"305","2","2244","KAPP","Zürich, Kappeli","2012-10-01 06:14:06 AM","-0.37","8.494669444444444","47.38520972222222"
"305","2","2770","GRIM","Zürich, Grimselstrasse","2012-10-01 06:15:30 AM","-0.28","8.489712777777777","47.387045"
"305","2","2535","LIND","Zürich, Lindenplatz","2012-10-01 06:16:42 AM","-0.53","8.485795277777777","47.38788111111111"
"305","2","2818","BACH","Zürich, Bachmattstrasse","2012-10-01 06:17:36 AM","-0.48","8.482602222222223","47.389178333333334"
"305","2","1310","FARB","Zürich, Farbhof","2012-10-01 06:18:42 AM","-0.22","8.47908111111111","47.39064944444444"
"305","2","1310","FARB","Zürich, Farbhof","2012-10-01 06:22:00 AM","-0.3","8.47908111111111","47.39064944444444"
"305","2","2818","BACH","Zürich, Bachmattstrasse","2012-10-01 06:22:48 AM","-0.35","8.482995833333334","47.38898583333334"
"305","2","2535","LIND","Zürich, Lindenplatz","2012-10-01 06:23:30 AM","-0.13","8.486349722222222","47.38777722222222"
"305","2","2770","GRIM","Zürich, Grimselstrasse","2012-10-01 06:24:42 AM","-0.05","8.490318888888888","47.386895555555554"
"305","2","2244","KAPP","Zürich, Kappeli","2012-10-01 06:26:12 AM","-0.02","8.495116944444444","47.385061944444445"
"305","2","2253","FREI","Zürich, Freihofstrasse","2012-10-01 06:27:18 AM","0.12","8.499870833333333","47.38303027777778"
"305","2","2245","LETG","Zürich, Letzigrund","2012-10-01 06:28:24 AM","0.17","8.50382","47.38115888888889"
"305","2","1535","ALBP","Zürich, Albisriederplatz","2012-10-01 06:29:42 AM","0.25","8.51051388888889","47.37817361111111"
"305","2","2250","ZYPR","Zürich, Zypressenstrasse","2012-10-01 06:30:54 AM","0.32","8.513966111111111","47.3766575"
"305","2","2248","LOCH","Zürich, Lochergut","2012-10-01 06:32:00 AM","0.2","8.517727777777777","47.375344444444444"
"305","2","1906","KALK","Zürich, Kalkbreite","2012-10-01 06:33:30 AM","0.47","8.5212725","47.37452944444444"
"305","2","1306","BEZI","Zürich, Bezirksgebäude","2012-10-01 06:34:36 AM","0.78","8.525868611111111","47.37394638888889"
"305","2","1502","STAU","Zürich, Stauffacher","2012-10-01 06:36:06 AM","0.73","8.530297222222222","47.37358972222222"
"305","2","2657","SIHS","Zürich, Sihlstrasse","2012-10-01 06:38:42 AM","2.43","8.534823333333334","47.372170833333335"
"305","2","1528","PARA","Zürich, Paradeplatz","2012-10-01 06:40:18 AM","3.12","8.53917888888889","47.369574722222225"
"305","2","2228","BOES","Zürich, Börsenstrasse","2012-10-01 06:41:42 AM","2.75","8.539835833333333","47.36803916666667"
"305","2","2590","BURK","Zürich, Bürkliplatz","2012-10-01 06:43:06 AM","2.92","8.541765833333333","47.36660861111111"
"305","2","1565","BELL","Zürich, Bellevue","2012-10-01 06:44:48 AM","3.45","8.545332777777778","47.36687138888889"
"305","2","2104","OPER","Zürich, Opernhaus","2012-10-01 06:46:30 AM","2.95","8.547723055555556","47.36531027777778"
"305","2","2612","KRES","Zürich, Kreuzstrasse","2012-10-01 06:47:30 AM","3.18","8.5496","47.36325027777778"
"305","2","2689","FELD","Zürich, Feldeggstrasse","2012-10-01 06:48:48 AM","3.3","8.552069722222223","47.36042888888889"
"305","2","2615","HOES","Zürich, Höschgasse","2012-10-01 06:49:54 AM","3.27","8.554345277777777","47.35782527777778"
"305","2","2680","FROE","Zürich, Fröhlichstrasse","2012-10-01 06:51:00 AM","3.37","8.557001111111111","47.355065"
"305","2","2651","WILD","Zürich, Wildbachstrasse","2012-10-01 06:52:00 AM","3.27","8.5588925","47.35310388888889"
"305","2","2788","BTIE","Zürich, Bahnhof Tiefenbrunnen","2012-10-01 06:53:06 AM","3.62","8.561023055555555","47.35057333333334"
"305","2","2788","BTIE","Zürich, Bahnhof Tiefenbrunnen","2012-10-01 06:59:00 AM","-0.13","8.561023055555555","47.35057333333334"
"305","2","2651","WILD","Zürich, Wildbachstrasse","2012-10-01 07:00:00 AM","0.02","8.558699444444445","47.35337555555556"
"305","2","2680","FROE","Zürich, Fröhlichstrasse","2012-10-01 07:01:00 AM","0.0","8.556808888888888","47.35537277777778"
"305","2","2615","HOES","Zürich, Höschgasse","2012-10-01 07:02:06 AM","0.08","8.554178055555555","47.35806083333333"
"305","2","2689","FELD","Zürich, Feldeggstrasse","2012-10-01 07:03:12 AM","-0.08","8.552318333333334","47.36029166666667"
"305","2","2612","KRES","Zürich, Kreuzstrasse","2012-10-01 07:04:30 AM","-0.33","8.549910555555556","47.36291444444444"
"305","2","2104","OPER","Zürich, Opernhaus","2012-10-01 07:05:42 AM","-0.28","8.547371666666667","47.36560138888889"
"305","2","1565","BELL","Zürich, Bellevue","2012-10-01 07:07:42 AM","-0.53","8.544831666666667","47.36696611111111"
"305","2","2590","BURK","Zürich, Bürkliplatz","2012-10-01 07:09:54 AM","0.52","8.540955","47.366463333333336"
"305","2","2228","BOES","Zürich, Börsenstrasse","2012-10-01 07:11:30 AM","0.35","8.539842777777778","47.36837194444445"
"305","2","1528","PARA","Zürich, Paradeplatz","2012-10-01 07:12:36 AM","0.27","8.538715","47.369552222222225"
"305","2","2657","SIHS","Zürich, Sihlstrasse","2012-10-01 07:14:18 AM","0.55","8.534576944444444","47.372425"
"305","2","1502","STAU","Zürich, Stauffacher","2012-10-01 07:16:18 AM","0.27","8.529235","47.37343805555555"
"305","2","1306","BEZI","Zürich, Bezirksgebäude","2012-10-01 07:18:42 AM","-0.03","8.525395555555555","47.37412166666667"
"305","2","1906","KALK","Zürich, Kalkbreite","2012-10-01 07:20:06 AM","-0.07","8.520745555555555","47.37466027777778"
"305","2","2248","LOCH","Zürich, Lochergut","2012-10-01 07:21:24 AM","0.23","8.517121111111111","47.3755125"
"305","2","2250","ZYPR","Zürich, Zypressenstrasse","2012-10-01 07:22:36 AM","0.02","8.513573055555556","47.37685888888889"
"305","2","1535","ALBP","Zürich, Albisriederplatz","2012-10-01 07:24:00 AM","-0.05","8.510094444444444","47.37838444444444"
"305","2","2245","LETG","Zürich, Letzigrund","2012-10-01 07:25:54 AM","-0.12","8.503504722222223","47.38129694444444"
"305","2","2253","FREI","Zürich, Freihofstrasse","2012-10-01 07:27:06 AM","-0.22","8.499385555555556","47.38326861111111"
"305","2","2244","KAPP","Zürich, Kappeli","2012-10-01 07:28:18 AM","-0.15","8.494669444444444","47.38520972222222"
"305","2","2770","GRIM","Zürich, Grimselstrasse","2012-10-01 07:29:54 AM","-0.2","8.489712777777777","47.387045"
"305","2","2535","LIND","Zürich, Lindenplatz","2012-10-01 07:31:06 AM","-0.3","8.485795277777777","47.38788111111111"
"305","2","2818","BACH","Zürich, Bachmattstrasse","2012-10-01 07:32:18 AM","-0.5","8.482602222222223","47.389178333333334"
"305","2","1310","FARB","Zürich, Farbhof","2012-10-01 07:33:30 AM","-0.28","8.47908111111111","47.39064944444444"
"305","2","1310","FARB","Zürich, Farbhof","2012-10-01 07:36:00 AM","0.33","8.47908111111111","47.39064944444444"
"305","2","2818","BACH","Zürich, Bachmattstrasse","2012-10-01 07:36:54 AM","0.28","8.482995833333334","47.38898583333334"
"305","2","2535","LIND","Zürich, Lindenplatz","2012-10-01 07:37:42 AM","0.52","8.486349722222222","47.38777722222222"
"305","2","2770","GRIM","Zürich, Grimselstrasse","2012-10-01 07:38:54 AM","0.47","8.490318888888888","47.386895555555554"
"305","2","2244","KAPP","Zürich, Kappeli","2012-10-01 07:40:30 AM","0.53","8.495116944444444","47.385061944444445"
"305","2","2253","FREI","Zürich, Freihofstrasse","2012-10-01 07:41:42 AM","0.67","8.499870833333333","47.38303027777778"
"305","2","2245","LETG","Zürich, Letzigrund","2012-10-01 07:42:54 AM","0.6","8.50382","47.38115888888889"
"305","2","1535","ALBP","Zürich, Albisriederplatz","2012-10-01 07:44:18 AM","0.73","8.51051388888889","47.37817361111111"
"305","2","2250","ZYPR","Zürich, Zypressenstrasse","2012-10-01 07:45:30 AM","0.9","8.513966111111111","47.3766575"
"305","2","2248","LOCH","Zürich, Lochergut","2012-10-01 07:46:42 AM","0.78","8.517727777777777","47.375344444444444"
"305","2","1906","KALK","Zürich, Kalkbreite","2012-10-01 07:48:12 AM","0.92","8.5212725","47.37452944444444"
"305","2","1306","BEZI","Zürich, Bezirksgebäude","2012-10-01 07:49:24 AM","1.15","8.525868611111111","47.37394638888889"
"305","2","1502","STAU","Zürich, Stauffacher","2012-10-01 07:51:06 AM","0.77","8.530297222222222","47.37358972222222"
"305","2","2657","SIHS","Zürich, Sihlstrasse","2012-10-01 07:53:36 AM","1.6","8.534823333333334","47.372170833333335"
"305","2","1528","PARA","Zürich, Paradeplatz","2012-10-01 07:55:18 AM","1.65","8.53917888888889","47.369574722222225"
"305","2","2228","BOES","Zürich, Börsenstrasse","2012-10-01 07:57:00 AM","1.12","8.539835833333333","47.36803916666667"
"305","2","2590","BURK","Zürich, Bürkliplatz","2012-10-01 07:58:30 AM","1.08","8.541765833333333","47.36660861111111"
"305","2","1565","BELL","Zürich, Bellevue","2012-10-01 08:00:30 AM","0.62","8.545332777777778","47.36687138888889"
"305","2","2104","OPER","Zürich, Opernhaus","2012-10-01 08:02:24 AM","0.6","8.547723055555556","47.36531027777778"
"305","2","2612","KRES","Zürich, Kreuzstrasse","2012-10-01 08:03:36 AM","0.77","8.5496","47.36325027777778"
"305","2","2689","FELD","Zürich, Feldeggstrasse","2012-10-01 08:04:54 AM","0.77","8.552069722222223","47.36042888888889"
"305","2","2615","HOES","Zürich, Höschgasse","2012-10-01 08:06:06 AM","0.93","8.554345277777777","47.35782527777778"
"305","2","2680","FROE","Zürich, Fröhlichstrasse","2012-10-01 08:07:24 AM","1.12","8.557001111111111","47.355065"
"305","2","2651","WILD","Zürich, Wildbachstrasse","2012-10-01 08:08:24 AM","1.13","8.5588925","47.35310388888889"
"305","2","2788","BTIE","Zürich, Bahnhof Tiefenbrunnen","2012-10-01 08:09:30 AM","1.48","8.561023055555555","47.35057333333334"
"305","2","2788","BTIE","Zürich, Bahnhof Tiefenbrunnen","2012-10-01 08:14:00 AM","-0.13","8.561023055555555","47.35057333333334"
"305","2","2651","WILD","Zürich, Wildbachstrasse","2012-10-01 08:15:00 AM","-0.12","8.558699444444445","47.35337555555556"
"305","2","2680","FROE","Zürich, Fröhlichstrasse","2012-10-01 08:16:00 AM","-0.17","8.556808888888888","47.35537277777778"
"305","2","2615","HOES","Zürich, Höschgasse","2012-10-01 08:17:06 AM","0.03","8.554178055555555","47.35806083333333"
"305","2","2689","FELD","Zürich, Feldeggstrasse","2012-10-01 08:18:12 AM","-0.02","8.552318333333334","47.36029166666667"
"305","2","2612","KRES","Zürich, Kreuzstrasse","2012-10-01 08:19:30 AM","0.08","8.549910555555556","47.36291444444444"
"305","2","2104","OPER","Zürich, Opernhaus","2012-10-01 08:20:42 AM","0.2","8.547371666666667","47.36560138888889"
"305","2","1565","BELL","Zürich, Bellevue","2012-10-01 08:22:42 AM","0.17","8.544831666666667","47.36696611111111"
"305","2","2590","BURK","Zürich, Bürkliplatz","2012-10-01 08:24:54 AM","1.58","8.540955","47.366463333333336"
"305","2","2228","BOES","Zürich, Börsenstrasse","2012-10-01 08:26:30 AM","1.72","8.539842777777778","47.36837194444445"
"305","2","1528","PARA","Zürich, Paradeplatz","2012-10-01 08:27:36 AM","1.77","8.538715","47.369552222222225"
"305","2","2657","SIHS","Zürich, Sihlstrasse","2012-10-01 08:29:18 AM","1.8","8.534576944444444","47.372425"
"305","2","1502","STAU","Zürich, Stauffacher","2012-10-01 08:31:18 AM","1.55","8.529235","47.37343805555555"
"305","2","1306","BEZI","Zürich, Bezirksgebäude","2012-10-01 08:33:42 AM","1.3","8.525395555555555","47.37412166666667"
"305","2","1906","KALK","Zürich, Kalkbreite","2012-10-01 08:35:06 AM","1.22","8.520745555555555","47.37466027777778"
"305","2","2248","LOCH","Zürich, Lochergut","2012-10-01 08:36:24 AM","1.65","8.517121111111111","47.3755125"
"305","2","2250","ZYPR","Zürich, Zypressenstrasse","2012-10-01 08:37:36 AM","1.4","8.513573055555556","47.37685888888889"
"305","2","1535","ALBP","Zürich, Albisriederplatz","2012-10-01 08:39:00 AM","1.62","8.510094444444444","47.37838444444444"
"305","2","2245","LETG","Zürich, Letzigrund","2012-10-01 08:40:54 AM","1.33","8.503504722222223","47.38129694444444"
"305","2","2253","FREI","Zürich, Freihofstrasse","2012-10-01 08:42:06 AM","1.22","8.499385555555556","47.38326861111111"
"305","2","2244","KAPP","Zürich, Kappeli","2012-10-01 08:43:18 AM","1.23","8.494669444444444","47.38520972222222"
"305","2","2770","GRIM","Zürich, Grimselstrasse","2012-10-01 08:44:54 AM","1.2","8.489712777777777","47.387045"
"305","2","2535","LIND","Zürich, Lindenplatz","2012-10-01 08:46:06 AM","0.97","8.485795277777777","47.38788111111111"
"305","2","2818","BACH","Zürich, Bachmattstrasse","2012-10-01 08:47:18 AM","0.72","8.482602222222223","47.389178333333334"
"305","2","1310","FARB","Zürich, Farbhof","2012-10-01 08:48:30 AM","0.85","8.47908111111111","47.39064944444444"
"305","2","1310","FARB","Zürich, Farbhof","2012-10-01 08:50:30 AM","0.35","8.47908111111111","47.39064944444444"
"305","2","2818","BACH","Zürich, Bachmattstrasse","2012-10-01 08:51:24 AM","0.13","8.482995833333334","47.38898583333334"
"305","2","2535","LIND","Zürich, Lindenplatz","2012-10-01 08:52:12 AM","0.37","8.486349722222222","47.38777722222222"
"305","2","2770","GRIM","Zürich, Grimselstrasse","2012-10-01 08:53:24 AM","0.27","8.490318888888888","47.386895555555554"
"305","2","2244","KAPP","Zürich, Kappeli","2012-10-01 08:55:00 AM","0.1","8.495116944444444","47.385061944444445"
"305","2","2253","FREI","Zürich, Freihofstrasse","2012-10-01 08:56:12 AM","0.1","8.499870833333333","47.38303027777778"
"305","2","2245","LETG","Zürich, Letzigrund","2012-10-01 08:57:24 AM","-0.03","8.50382","47.38115888888889"
"305","2","1535","ALBP","Zürich, Albisriederplatz","2012-10-01 08:58:48 AM","0.02","8.51051388888889","47.37817361111111"
"305","2","2250","ZYPR","Zürich, Zypressenstrasse","2012-10-01 09:00:06 AM","0.45","8.513966111111111","47.3766575"
"305","2","2248","LOCH","Zürich, Lochergut","2012-10-01 09:01:12 AM","0.5","8.517727777777777","47.375344444444444"
"305","2","1906","KALK","Zürich, Kalkbreite","2012-10-01 09:02:42 AM","0.53","8.5212725","47.37452944444444"
"305","2","1306","BEZI","Zürich, Bezirksgebäude","2012-10-01 09:04:00 AM","0.67","8.525868611111111","47.37394638888889"
"305","2","1502","STAU","Zürich, Stauffacher","2012-10-01 09:05:42 AM","0.42","8.530297222222222","47.37358972222222"
"305","2","2657","SIHS","Zürich, Sihlstrasse","2012-10-01 09:08:30 AM","0.43","8.534823333333334","47.372170833333335"
"305","2","1528","PARA","Zürich, Paradeplatz","2012-10-01 09:10:12 AM","0.47","8.53917888888889","47.369574722222225"
"305","2","2228","BOES","Zürich, Börsenstrasse","2012-10-01 09:11:54 AM","0.13","8.539835833333333","47.36803916666667"
"305","2","2590","BURK","Zürich, Bürkliplatz","2012-10-01 09:13:24 AM","0.33","8.541765833333333","47.36660861111111"
"305","2","1565","BELL","Zürich, Bellevue","2012-10-01 09:15:18 AM","0.18","8.545332777777778","47.36687138888889"
"305","2","2104","OPER","Zürich, Opernhaus","2012-10-01 09:17:06 AM","0.28","8.547723055555556","47.36531027777778"
"305","2","2612","KRES","Zürich, Kreuzstrasse","2012-10-01 09:18:12 AM","0.3","8.5496","47.36325027777778"
"305","2","2689","FELD","Zürich, Feldeggstrasse","2012-10-01 09:19:24 AM","0.38","8.552069722222223","47.36042888888889"
"305","2","2615","HOES","Zürich, Höschgasse","2012-10-01 09:20:36 AM","0.32","8.554345277777777","47.35782527777778"
"305","2","2680","FROE","Zürich, Fröhlichstrasse","2012-10-01 09:21:54 AM","0.22","8.557001111111111","47.355065"
"305","2","2651","WILD","Zürich, Wildbachstrasse","2012-10-01 09:22:54 AM","0.25","8.5588925","47.35310388888889"
"305","2","2788","BTIE","Zürich, Bahnhof Tiefenbrunnen","2012-10-01 09:24:00 AM","0.63","8.561023055555555","47.35057333333334"
"305","2","2788","BTIE","Zürich, Bahnhof Tiefenbrunnen","2012-10-01 09:29:00 AM","0.28","8.561023055555555","47.35057333333334"
"305","2","2651","WILD","Zürich, Wildbachstrasse","2012-10-01 09:30:00 AM","0.4","8.558699444444445","47.35337555555556"
"305","2","2680","FROE","Zürich, Fröhlichstrasse","2012-10-01 09:31:00 AM","0.33","8.556808888888888","47.35537277777778"
"305","2","2615","HOES","Zürich, Höschgasse","2012-10-01 09:32:06 AM","0.37","8.554178055555555","47.35806083333333"
"305","2","2689","FELD","Zürich, Feldeggstrasse","2012-10-01 09:33:12 AM","0.18","8.552318333333334","47.36029166666667"
"305","2","2612","KRES","Zürich, Kreuzstrasse","2012-10-01 09:34:30 AM","0.23","8.549910555555556","47.36291444444444"
"305","2","2104","OPER","Zürich, Opernhaus","2012-10-01 09:35:42 AM","0.33","8.547371666666667","47.36560138888889"
"305","2","1565","BELL","Zürich, Bellevue","2012-10-01 09:37:48 AM","0.27","8.544831666666667","47.36696611111111"
"305","2","2590","BURK","Zürich, Bürkliplatz","2012-10-01 09:39:54 AM","0.33","8.540955","47.366463333333336"
"305","2","2228","BOES","Zürich, Börsenstrasse","2012-10-01 09:41:30 AM","0.3","8.539842777777778","47.36837194444445"
"305","2","1528","PARA","Zürich, Paradeplatz","2012-10-01 09:42:30 AM","0.52","8.538715","47.369552222222225"
"305","2","2657","SIHS","Zürich, Sihlstrasse","2012-10-01 09:44:30 AM","0.78","8.534576944444444","47.372425"
"305","2","1502","STAU","Zürich, Stauffacher","2012-10-01 09:46:30 AM","0.6","8.529235","47.37343805555555"
"305","2","1306","BEZI","Zürich, Bezirksgebäude","2012-10-01 09:48:54 AM","0.23","8.525395555555555","47.37412166666667"
"305","2","1906","KALK","Zürich, Kalkbreite","2012-10-01 09:50:12 AM","0.8","8.520745555555555","47.37466027777778"
"305","2","2248","LOCH","Zürich, Lochergut","2012-10-01 09:51:36 AM","0.68","8.517121111111111","47.3755125"
"305","2","2250","ZYPR","Zürich, Zypressenstrasse","2012-10-01 09:52:48 AM","0.45","8.513573055555556","47.37685888888889"
"305","2","1535","ALBP","Zürich, Albisriederplatz","2012-10-01 09:54:12 AM","0.22","8.510094444444444","47.37838444444444"
"305","2","2245","LETG","Zürich, Letzigrund","2012-10-01 09:56:00 AM","0.43","8.503504722222223","47.38129694444444"
"305","2","2253","FREI","Zürich, Freihofstrasse","2012-10-01 09:57:12 AM","0.32","8.499385555555556","47.38326861111111"
"305","2","2244","KAPP","Zürich, Kappeli","2012-10-01 09:58:24 AM","0.38","8.494669444444444","47.38520972222222"
"305","2","2770","GRIM","Zürich, Grimselstrasse","2012-10-01 09:59:54 AM","0.42","8.489712777777777","47.387045"
"305","2","2535","LIND","Zürich, Lindenplatz","2012-10-01 10:01:06 AM","0.2","8.485795277777777","47.38788111111111"
"305","2","2818","BACH","Zürich, Bachmattstrasse","2012-10-01 10:02:12 AM","0.17","8.482602222222223","47.389178333333334"
"305","2","1310","FARB","Zürich, Farbhof","2012-10-01 10:03:24 AM","0.38","8.47908111111111","47.39064944444444"
"305","2","1310","FARB","Zürich, Farbhof","2012-10-01 10:05:30 AM","0.37","8.47908111111111","47.39064944444444"
"305","2","2818","BACH","Zürich, Bachmattstrasse","2012-10-01 10:06:24 AM","0.13","8.482995833333334","47.38898583333334"
"305","2","2535","LIND","Zürich, Lindenplatz","2012-10-01 10:07:12 AM","0.32","8.486349722222222","47.38777722222222"
"305","2","2770","GRIM","Zürich, Grimselstrasse","2012-10-01 10:08:24 AM","0.12","8.490318888888888","47.386895555555554"
"305","2","2244","KAPP","Zürich, Kappeli","2012-10-01 10:10:00 AM","0.37","8.495116944444444","47.385061944444445"
"305","2","2253","FREI","Zürich, Freihofstrasse","2012-10-01 10:11:12 AM","0.42","8.499870833333333","47.38303027777778"
"305","2","2245","LETG","Zürich, Letzigrund","2012-10-01 10:12:24 AM","0.33","8.50382","47.38115888888889"
"305","2","1535","ALBP","Zürich, Albisriederplatz","2012-10-01 10:13:48 AM","0.42","8.51051388888889","47.37817361111111"
"305","2","2250","ZYPR","Zürich, Zypressenstrasse","2012-10-01 10:15:06 AM","0.38","8.513966111111111","47.3766575"
"305","2","2248","LOCH","Zürich, Lochergut","2012-10-01 10:16:12 AM","0.25","8.517727777777777","47.375344444444444"
"305","2","1906","KALK","Zürich, Kalkbreite","2012-10-01 10:17:42 AM","0.13","8.5212725","47.37452944444444"
"305","2","1306","BEZI","Zürich, Bezirksgebäude","2012-10-01 10:19:00 AM","0.67","8.525868611111111","47.37394638888889"
"305","2","1502","STAU","Zürich, Stauffacher","2012-10-01 10:20:42 AM","0.4","8.530297222222222","47.37358972222222"
"305","2","2657","SIHS","Zürich, Sihlstrasse","2012-10-01 10:23:30 AM","0.27","8.534823333333334","47.372170833333335"
"305","2","1528","PARA","Zürich, Paradeplatz","2012-10-01 10:25:12 AM","0.5","8.53917888888889","47.369574722222225"
"305","2","2228","BOES","Zürich, Börsenstrasse","2012-10-01 10:26:54 AM","0.18","8.539835833333333","47.36803916666667"
"305","2","2590","BURK","Zürich, Bürkliplatz","2012-10-01 10:28:24 AM","0.38","8.541765833333333","47.36660861111111"
"305","2","1565","BELL","Zürich, Bellevue","2012-10-01 10:30:18 AM","0.22","8.545332777777778","47.36687138888889"
"305","2","2104","OPER","Zürich, Opernhaus","2012-10-01 10:32:06 AM","0.27","8.547723055555556","47.36531027777778"
"305","2","2612","KRES","Zürich, Kreuzstrasse","2012-10-01 10:33:12 AM","0.3","8.5496","47.36325027777778"
"305","2","2689","FELD","Zürich, Feldeggstrasse","2012-10-01 10:34:24 AM","0.33","8.552069722222223","47.36042888888889"
"305","2","2615","HOES","Zürich, Höschgasse","2012-10-01 10:35:36 AM","0.25","8.554345277777777","47.35782527777778"
"305","2","2680","FROE","Zürich, Fröhlichstrasse","2012-10-01 10:36:54 AM","0.5","8.557001111111111","47.355065"
"305","2","2651","WILD","Zürich, Wildbachstrasse","2012-10-01 10:37:54 AM","0.5","8.5588925","47.35310388888889"
"305","2","2788","BTIE","Zürich, Bahnhof Tiefenbrunnen","2012-10-01 10:39:00 AM","0.73","8.561023055555555","47.35057333333334"
"305","2","2788","BTIE","Zürich, Bahnhof Tiefenbrunnen","2012-10-01 10:44:00 AM","0.3","8.561023055555555","47.35057333333334"
"305","2","2651","WILD","Zürich, Wildbachstrasse","2012-10-01 10:45:00 AM","0.22","8.558699444444445","47.35337555555556"
"305","2","2680","FROE","Zürich, Fröhlichstrasse","2012-10-01 10:46:00 AM","0.23","8.556808888888888","47.35537277777778"
"305","2","2615","HOES","Zürich, Höschgasse","2012-10-01 10:47:06 AM","0.35","8.554178055555555","47.35806083333333"
"305","2","2689","FELD","Zürich, Feldeggstrasse","2012-10-01 10:48:12 AM","0.23","8.552318333333334","47.36029166666667"
"305","2","2612","KRES","Zürich, Kreuzstrasse","2012-10-01 10:49:30 AM","0.38","8.549910555555556","47.36291444444444"
"305","2","2104","OPER","Zürich, Opernhaus","2012-10-01 10:50:42 AM","0.53","8.547371666666667","47.36560138888889"
"305","2","1565","BELL","Zürich, Bellevue","2012-10-01 10:52:48 AM","0.0","8.544831666666667","47.36696611111111"
"305","2","2590","BURK","Zürich, Bürkliplatz","2012-10-01 10:54:54 AM","1.3","8.540955","47.366463333333336"
"305","2","2228","BOES","Zürich, Börsenstrasse","2012-10-01 10:56:30 AM","1.0","8.539842777777778","47.36837194444445"
"305","2","1528","PARA","Zürich, Paradeplatz","2012-10-01 10:57:30 AM","1.3","8.538715","47.369552222222225"
"305","2","2657","SIHS","Zürich, Sihlstrasse","2012-10-01 10:59:30 AM","1.23","8.534576944444444","47.372425"
"305","2","1502","STAU","Zürich, Stauffacher","2012-10-01 11:01:30 AM","1.15","8.529235","47.37343805555555"
"305","2","1306","BEZI","Zürich, Bezirksgebäude","2012-10-01 11:03:54 AM","1.27","8.525395555555555","47.37412166666667"
"305","2","1906","KALK","Zürich, Kalkbreite","2012-10-01 11:05:12 AM","1.18","8.520745555555555","47.37466027777778"
"305","2","2248","LOCH","Zürich, Lochergut","2012-10-01 11:06:36 AM","1.08","8.517121111111111","47.3755125"
"305","2","2250","ZYPR","Zürich, Zypressenstrasse","2012-10-01 11:07:48 AM","0.93","8.513573055555556","47.37685888888889"
"305","2","1535","ALBP","Zürich, Albisriederplatz","2012-10-01 11:09:12 AM","0.67","8.510094444444444","47.37838444444444"
"305","2","2245","LETG","Zürich, Letzigrund","2012-10-01 11:11:00 AM","0.57","8.503504722222223","47.38129694444444"
"305","2","2253","FREI","Zürich, Freihofstrasse","2012-10-01 11:12:12 AM","0.65","8.499385555555556","47.38326861111111"
"305","2","2244","KAPP","Zürich, Kappeli","2012-10-01 11:13:24 AM","0.7","8.494669444444444","47.38520972222222"
"305","2","2770","GRIM","Zürich, Grimselstrasse","2012-10-01 11:14:54 AM","0.68","8.489712777777777","47.387045"
"305","2","2535","LIND","Zürich, Lindenplatz","2012-10-01 11:16:06 AM","0.5","8.485795277777777","47.38788111111111"
"305","2","2818","BACH","Zürich, Bachmattstrasse","2012-10-01 11:17:12 AM","0.48","8.482602222222223","47.389178333333334"
"305","2","1310","FARB","Zürich, Farbhof","2012-10-01 11:18:24 AM","0.75","8.47908111111111","47.39064944444444"
"305","2","1310","FARB","Zürich, Farbhof","2012-10-01 11:20:30 AM","0.23","8.47908111111111","47.39064944444444"
"305","2","2818","BACH","Zürich, Bachmattstrasse","2012-10-01 11:21:24 AM","0.07","8.482995833333334","47.38898583333334"
"305","2","2535","LIND","Zürich, Lindenplatz","2012-10-01 11:22:12 AM","0.27","8.486349722222222","47.38777722222222"
"305","2","2770","GRIM","Zürich, Grimselstrasse","2012-10-01 11:23:24 AM","0.35","8.490318888888888","47.386895555555554"
"305","2","2244","KAPP","Zürich, Kappeli","2012-10-01 11:25:00 AM","0.23","8.495116944444444","47.385061944444445"
"305","2","2253","FREI","Zürich, Freihofstrasse","2012-10-01 11:26:12 AM","0.4","8.499870833333333","47.38303027777778"
"305","2","2245","LETG","Zürich, Letzigrund","2012-10-01 11:27:24 AM","0.3","8.50382","47.38115888888889"
"305","2","1535","ALBP","Zürich, Albisriederplatz","2012-10-01 11:28:48 AM","0.4","8.51051388888889","47.37817361111111"
"305","2","2250","ZYPR","Zürich, Zypressenstrasse","2012-10-01 11:30:06 AM","0.37","8.513966111111111","47.3766575"
"305","2","2248","LOCH","Zürich, Lochergut","2012-10-01 11:31:12 AM","0.27","8.517727777777777","47.375344444444444"
"305","2","1906","KALK","Zürich, Kalkbreite","2012-10-01 11:32:42 AM","0.1","8.5212725","47.37452944444444"
"305","2","1306","BEZI","Zürich, Bezirksgebäude","2012-10-01 11:34:00 AM","0.6","8.525868611111111","47.37394638888889"
"305","2","1502","STAU","Zürich, Stauffacher","2012-10-01 11:35:42 AM","0.42","8.530297222222222","47.37358972222222"
"305","2","2657","SIHS","Zürich, Sihlstrasse","2012-10-01 11:38:30 AM","0.98","8.534823333333334","47.372170833333335"
"305","2","1528","PARA","Zürich, Paradeplatz","2012-10-01 11:40:12 AM","1.18","8.53917888888889","47.369574722222225"
"305","2","2228","BOES","Zürich, Börsenstrasse","2012-10-01 11:41:54 AM","0.58","8.539835833333333","47.36803916666667"
"305","2","2590","BURK","Zürich, Bürkliplatz","2012-10-01 11:43:24 AM","1.07","8.541765833333333","47.36660861111111"
"305","2","1565","BELL","Zürich, Bellevue","2012-10-01 11:45:18 AM","0.75","8.545332777777778","47.36687138888889"
"305","2","2104","OPER","Zürich, Opernhaus","2012-10-01 11:47:06 AM","0.23","8.547723055555556","47.36531027777778"
"305","2","2612","KRES","Zürich, Kreuzstrasse","2012-10-01 11:48:12 AM","0.25","8.5496","47.36325027777778"
"305","2","2689","FELD","Zürich, Feldeggstrasse","2012-10-01 11:49:24 AM","0.33","8.552069722222223","47.36042888888889"
"305","2","2615","HOES","Zürich, Höschgasse","2012-10-01 11:50:36 AM","0.25","8.554345277777777","47.35782527777778"
"305","2","2680","FROE","Zürich, Fröhlichstrasse","2012-10-01 11:51:54 AM","0.5","8.557001111111111","47.355065"
"305","2","2651","WILD","Zürich, Wildbachstrasse","2012-10-01 11:52:54 AM","0.38","8.5588925","47.35310388888889"
"305","2","2788","BTIE","Zürich, Bahnhof Tiefenbrunnen","2012-10-01 11:54:00 AM","0.8","8.561023055555555","47.35057333333334"
"305","2","2788","BTIE","Zürich, Bahnhof Tiefenbrunnen","2012-10-01 11:59:00 AM","0.25","8.561023055555555","47.35057333333334"
"305","2","2651","WILD","Zürich, Wildbachstrasse","2012-10-01 12:00:00 PM","0.23","8.558699444444445","47.35337555555556"
"305","2","2680","FROE","Zürich, Fröhlichstrasse","2012-10-01 12:01:00 PM","0.27","8.556808888888888","47.35537277777778"
"305","2","2615","HOES","Zürich, Höschgasse","2012-10-01 12:02:06 PM","0.33","8.554178055555555","47.35806083333333"
"305","2","2689","FELD","Zürich, Feldeggstrasse","2012-10-01 12:03:12 PM","0.3","8.552318333333334","47.36029166666667"
"305","2","2612","KRES","Zürich, Kreuzstrasse","2012-10-01 12:04:30 PM","0.27","8.549910555555556","47.36291444444444"
"305","2","2104","OPER","Zürich, Opernhaus","2012-10-01 12:05:42 PM","0.5","8.547371666666667","47.36560138888889"
"305","2","1565","BELL","Zürich, Bellevue","2012-10-01 12:07:48 PM","0.0","8.544831666666667","47.36696611111111"
"305","2","2590","BURK","Zürich, Bürkliplatz","2012-10-01 12:09:54 PM","0.83","8.540955","47.366463333333336"
"305","2","2228","BOES","Zürich, Börsenstrasse","2012-10-01 12:11:30 PM","1.0","8.539842777777778","47.36837194444445"
"305","2","1528","PARA","Zürich, Paradeplatz","2012-10-01 12:12:30 PM","1.18","8.538715","47.369552222222225"
"305","2","2657","SIHS","Zürich, Sihlstrasse","2012-10-01 12:14:30 PM","0.92","8.534576944444444","47.372425"
"305","2","1502","STAU","Zürich, Stauffacher","2012-10-01 12:16:30 PM","0.52","8.529235","47.37343805555555"
"305","2","1306","BEZI","Zürich, Bezirksgebäude","2012-10-01 12:18:54 PM","1.25","8.525395555555555","47.37412166666667"
"305","2","1906","KALK","Zürich, Kalkbreite","2012-10-01 12:20:12 PM","1.13","8.520745555555555","47.37466027777778"
"305","2","2248","LOCH","Zürich, Lochergut","2012-10-01 12:21:36 PM","1.15","8.517121111111111","47.3755125"
"305","2","2250","ZYPR","Zürich, Zypressenstrasse","2012-10-01 12:22:48 PM","0.87","8.513573055555556","47.37685888888889"
"305","2","1535","ALBP","Zürich, Albisriederplatz","2012-10-01 12:24:12 PM","0.67","8.510094444444444","47.37838444444444"
"305","2","2245","LETG","Zürich, Letzigrund","2012-10-01 12:26:00 PM","0.63","8.503504722222223","47.38129694444444"
"305","2","2253","FREI","Zürich, Freihofstrasse","2012-10-01 12:27:12 PM","0.42","8.499385555555556","47.38326861111111"
"305","2","2244","KAPP","Zürich, Kappeli","2012-10-01 12:28:24 PM","0.32","8.494669444444444","47.38520972222222"
"305","2","2770","GRIM","Zürich, Grimselstrasse","2012-10-01 12:29:54 PM","0.28","8.489712777777777","47.387045"
"305","2","2535","LIND","Zürich, Lindenplatz","2012-10-01 12:31:06 PM","0.3","8.485795277777777","47.38788111111111"
"305","2","2818","BACH","Zürich, Bachmattstrasse","2012-10-01 12:32:12 PM","0.27","8.482602222222223","47.389178333333334"
"305","2","1310","FARB","Zürich, Farbhof","2012-10-01 12:33:24 PM","0.33","8.47908111111111","47.39064944444444"
"305","2","1310","FARB","Zürich, Farbhof","2012-10-01 12:35:30 PM","0.2","8.47908111111111","47.39064944444444"
"305","2","2818","BACH","Zürich, Bachmattstrasse","2012-10-01 12:36:24 PM","-0.07","8.482995833333334","47.38898583333334"
"305","2","2535","LIND","Zürich, Lindenplatz","2012-10-01 12:37:12 PM","0.33","8.486349722222222","47.38777722222222"
"305","2","2770","GRIM","Zürich, Grimselstrasse","2012-10-01 12:38:24 PM","0.25","8.490318888888888","47.386895555555554"
"305","2","2244","KAPP","Zürich, Kappeli","2012-10-01 12:40:00 PM","0.2","8.495116944444444","47.385061944444445"
"305","2","2253","FREI","Zürich, Freihofstrasse","2012-10-01 12:41:12 PM","0.25","8.499870833333333","47.38303027777778"
"305","2","2245","LETG","Zürich, Letzigrund","2012-10-01 12:42:24 PM","0.07","8.50382","47.38115888888889"
"305","2","1535","ALBP","Zürich, Albisriederplatz","2012-10-01 12:43:48 PM","0.05","8.51051388888889","47.37817361111111"
"305","2","2250","ZYPR","Zürich, Zypressenstrasse","2012-10-01 12:45:06 PM","0.02","8.513966111111111","47.3766575"
"305","2","2248","LOCH","Zürich, Lochergut","2012-10-01 12:46:12 PM","-0.15","8.517727777777777","47.375344444444444"
"305","2","1906","KALK","Zürich, Kalkbreite","2012-10-01 12:47:42 PM","-0.43","8.5212725","47.37452944444444"
"305","2","1306","BEZI","Zürich, Bezirksgebäude","2012-10-01 12:49:00 PM","-0.4","8.525868611111111","47.37394638888889"
"305","2","1502","STAU","Zürich, Stauffacher","2012-10-01 12:50:42 PM","0.28","8.530297222222222","47.37358972222222"
"305","2","2657","SIHS","Zürich, Sihlstrasse","2012-10-01 12:53:30 PM","1.02","8.534823333333334","47.372170833333335"
